name,price_eur,size_m2,plot_size_m2,free_area_m2,rooms,location,postcode,lat,lon,url,platform,property_type,description,nearest_station,station_travel_min
Rarität!,€ 359.000,168.0,,24.0,8.0,Schöngrabern,2020,48.56257,16.078723,https://www.willhaben.at/iad/immobilien/d/haus-kaufen/niederoesterreich/hollabrunn/raritaet-1835184953/,willhaben.at,Bauernhaus,Rarität!,Hollabrunn Bahnhof,43
Traditionelles Bauernhaus mit historischem Weinkeller,€ 395.000,310.0,,,0.0,Nickelsdorf,2425,47.9383049,17.072993,https://www.willhaben.at/iad/immobilien/d/haus-kaufen/burgenland/neusiedl-am-see/traditionelles-bauernhaus-mit-historischem-weinkeller-1432193560/,willhaben.at,Bauernhaus,Traditionelles Bauernhaus mit historischem Weinkeller,Hegyeshalom pályaudvar,43
Über den Dächern von Hörersdorf - ehemaliges Bauernhaus für 75.000 EUR,€ 75.000,80.0,,,3.0,Hörersdorf,2132,48.6255309,16.52462802,https://www.willhaben.at/iad/immobilien/d/haus-kaufen/niederoesterreich/mistelbach/ueber-den-daechern-von-hoerersdorf-ehemaliges-bauernhaus-fuer-75-000-eur-1742217113/,willhaben.at,Bauernhaus,Über den Dächern von Hörersdorf - ehemaliges Bauernhaus für 75.000 EUR,Siebenhirten (NÖ) Haltestelle,57
"Bungalow, Bauernhaus Weinkeller, Scheune, Innenhof",€ 185.000,200.0,,,6.0,Niederabsdorf,2272,48.559967,16.871664,https://www.willhaben.at/iad/immobilien/d/haus-kaufen/niederoesterreich/gaenserndorf/bungalow-bauernhaus-weinkeller-scheune-innenhof-780260639/,willhaben.at,Bauernhaus,"Bungalow, Bauernhaus Weinkeller, Scheune, Innenhof",Drösing Bahnhof,67
Raum für Ihre Ideen!!,Preis auf Anfrage,160.0,,,0.0,Sieghartskirchen,3443,48.248276,16.019825,https://www.willhaben.at/iad/immobilien/d/haus-kaufen/niederoesterreich/tulln/raum-fuer-ihre-ideen-1187652483/,willhaben.at,Bauernhaus,Raum für Ihre Ideen!!,Tullnerfeld Bahnhof,19
Ferienhaus in Bogenneusiedl mit Garten und Weinkeller!!! VB!!!,€ 185.000,85.0,,8.0,0.0,Bogenneusiedl,2125,48.46849658,16.53730455,https://www.willhaben.at/iad/immobilien/d/haus-kaufen/niederoesterreich/mistelbach/ferienhaus-in-bogenneusiedl-mit-garten-und-weinkeller-vb-777611287/,willhaben.at,Bauernhaus,Ferienhaus in Bogenneusiedl mit Garten und Weinkeller!!! VB!!!,Niederkreuzstetten Bahnhof,38
"Historische Mühle inmitten von Wiesen und Feldern, nur unweit von Wien",Preis auf Anfrage,505.0,,,0.0,Judenau,3441,48.27355947,16.00703003,https://www.willhaben.at/iad/immobilien/d/haus-kaufen/niederoesterreich/tulln/historische-muehle-inmitten-von-wiesen-und-feldern-nur-unweit-von-wien-1185806576/,willhaben.at,Bauernhaus,"Historische Mühle inmitten von Wiesen und Feldern, nur unweit von Wien",Tullnerfeld Bahnhof,19
"Burgenländischer Streckhof mit Stall, Scheune & Bauland",€ 160.000,93.0,,,4.0,Loipersbach im Burgenland,7020,47.70534217,16.47770298,https://www.willhaben.at/iad/immobilien/d/haus-kaufen/burgenland/mattersburg/burgenlaendischer-streckhof-mit-stall-scheune-bauland-1045677622/,willhaben.at,Bauernhaus,"Burgenländischer Streckhof mit Stall, Scheune & Bauland",Marz-Rohrbach Bahnhof,57
Gutshof & landwirtschaftliche Flächen,€ 990.000,,,,0.0,Linz,4030,48.24999,14.325664,https://www.willhaben.at/iad/immobilien/d/haus-kaufen/oberoesterreich/linz/gutshof-landwirtschaftliche-flaechen-1917539339/,willhaben.at,Bauernhaus,Gutshof & landwirtschaftliche Flächen,Linz/Donau Hauptbahnhof,75
ALTRUPPERSDORF NÄHE POYSDORF,€ 99.000,105.0,,,3.0,Altruppersdorf,2135,48.69242,16.55127,https://www.willhaben.at/iad/immobilien/d/haus-kaufen/niederoesterreich/mistelbach/altruppersdorf-naehe-poysdorf-1719534129/,willhaben.at,Bauernhaus,ALTRUPPERSDORF NÄHE POYSDORF,Enzersdorf bei Staatz Bahnhof,66
Einfamilienhaus in perfekter Lage,€ 455.000,247.0,,720.0,6.0,Schwadorf,2432,48.07952533,16.57301752,https://www.willhaben.at/iad/immobilien/d/haus-kaufen/niederoesterreich/bruck-an-der-leitha/einfamilienhaus-in-perfekter-lage-1352828615/,willhaben.at,Bauernhaus,Einfamilienhaus in perfekter Lage,Fischamend Bahnhof,38
Ehemaliges Bauernhaus mit neuem Wohnbereich und großzügigen Nebengebäuden - perfekt für Pferdehaltung oder als Firmensitz,€ 620.000,107.0,,,4.0,Ternitz,2630,47.71570247,16.01691161,https://www.willhaben.at/iad/immobilien/d/haus-kaufen/niederoesterreich/neunkirchen/ehemaliges-bauernhaus-mit-neuem-wohnbereich-und-grosszuegigen-nebengebaeuden-perfekt-fuer-pferdehaltung-oder-als-firmensitz-1165135410/,willhaben.at,Bauernhaus,Ehemaliges Bauernhaus mit neuem Wohnbereich und großzügigen Nebengebäuden - perfekt für Pferdehaltung oder als Firmensitz,Neunkirchen Bahnhof,43
#SQ - DRASSBURG: EHEMALIGES BAUERNHAUS MIT HALLEN ALS LAGERFLÄCHEN ODER WERKSTATT - SANIERUNGSBEDÜRFTIG,€ 249.900,230.0,,,0.0,Draßburg,7021,47.73898827,16.47479109,https://www.willhaben.at/iad/immobilien/d/haus-kaufen/burgenland/mattersburg/-sq-drassburg-ehemaliges-bauernhaus-mit-hallen-als-lagerflaechen-oder-werkstatt-sanierungsbeduerftig-2093513900/,willhaben.at,Bauernhaus,#SQ - DRASSBURG: EHEMALIGES BAUERNHAUS MIT HALLEN ALS LAGERFLÄCHEN ODER WERKSTATT - SANIERUNGSBEDÜRFTIG,Marz-Rohrbach Bahnhof,57
Secret Garden auf 2.000m²,€ 685.000,250.0,,,7.0,Schwadorf,2432,48.0755855,16.57341228,https://www.willhaben.at/iad/immobilien/d/haus-kaufen/niederoesterreich/bruck-an-der-leitha/secret-garden-auf-2-000m-1401647002/,willhaben.at,Bauernhaus,Secret Garden auf 2.000m²,Fischamend Bahnhof,38
[06773] Alter Hof mit großer Scheune und Werkstatt,€ 189.000,118.0,,,4.0,Ternitz,2630,47.706585,16.018236,https://www.willhaben.at/iad/immobilien/d/haus-kaufen/niederoesterreich/neunkirchen/-06773-alter-hof-mit-grosser-scheune-und-werkstatt-1967207509/,willhaben.at,Bauernhaus,[06773] Alter Hof mit großer Scheune und Werkstatt,Neunkirchen Bahnhof,43
"Verträumtes Bauernhaus neu adaptiert (2013) mit Toreinfahrt, Pool, Stadel und Schuppen",€ 489.000,141.0,,708.0,5.0,Herrnleis,2126,48.52229208,16.44872759,https://www.willhaben.at/iad/immobilien/d/haus-kaufen/niederoesterreich/mistelbach/vertraeumtes-bauernhaus-neu-adaptiert-2013-mit-toreinfahrt-pool-stadel-und-schuppen-1620154441/,willhaben.at,Bauernhaus,"Verträumtes Bauernhaus neu adaptiert (2013) mit Toreinfahrt, Pool, Stadel und Schuppen",Niederkreuzstetten Bahnhof,38
Abbruchhaus mit gut erhaltenen Nebengebäuden,€ 277.000,90.0,,,0.0,Schmida,3464,48.39286,16.10301,https://www.willhaben.at/iad/immobilien/d/haus-kaufen/niederoesterreich/korneuburg/abbruchhaus-mit-gut-erhaltenen-nebengebaeuden-1298543719/,willhaben.at,Bauernhaus,Abbruchhaus mit gut erhaltenen Nebengebäuden,Oberolberndorf Bahnhof,30
Bauernhof Idylle auf großem Grundstück mit 2 Wohneinheiten,€ 325.000,121.0,,40.0,4.0,Siegendorf,7011,47.78053463,16.53807013,https://www.willhaben.at/iad/immobilien/d/haus-kaufen/burgenland/eisenstadt-umgebung/bauernhof-idylle-auf-grossem-grundstueck-mit-2-wohneinheiten-1125264624/,willhaben.at,Bauernhaus,Bauernhof Idylle auf großem Grundstück mit 2 Wohneinheiten,Eisenstadt Bahnhof,69
Bauernhaus - Weinviertler Hakenbau,€ 100.000,92.0,,,3.0,Sierndorf an der March,2264,48.51402,16.88715,https://www.willhaben.at/iad/immobilien/d/haus-kaufen/niederoesterreich/gaenserndorf/bauernhaus-weinviertler-hakenbau-790658274/,willhaben.at,Bauernhaus,Bauernhaus - Weinviertler Hakenbau,Dürnkrut Bahnhof,61
"Großzügiges Bauernhaus mit 2 Stadeln, Kammern und Stallungen",€ 210.000,110.0,,462.0,3.0,Viendorf,2013,48.47994168,16.14135766,https://www.willhaben.at/iad/immobilien/d/haus-kaufen/niederoesterreich/hollabrunn/grosszuegiges-bauernhaus-mit-2-stadeln-kammern-und-stallungen-1843368183/,willhaben.at,Bauernhaus,"Großzügiges Bauernhaus mit 2 Stadeln, Kammern und Stallungen",Sierndorf bei Stockerau Bahnhof,33
"Kleines Haus, große Möglichkeiten! Saniertes Bauernhaus im Gemeinschaftshof!",€ 156.000,84.0,,,2.0,Sankt Margarethen im Burgenland,7062,47.81230404,16.59631663,https://www.willhaben.at/iad/immobilien/d/haus-kaufen/burgenland/eisenstadt-umgebung/kleines-haus-grosse-moeglichkeiten-saniertes-bauernhaus-im-gemeinschaftshof-2052064310/,willhaben.at,Bauernhaus,"Kleines Haus, große Möglichkeiten! Saniertes Bauernhaus im Gemeinschaftshof!",Schützen am Gebirge Haltestelle,61
"Trautmannsdorf - Seltene Gelegenheit: Ehemaliges Fuhrwerkerhaus mit Pferdestallungen, zahlreichen Nebengebäuden und beeindruckendem Entwicklungspotenz",€ 399.000,240.0,,921.0,0.0,Trautmannsdorf an der Leitha,2454,48.01665105,16.64854444,https://www.willhaben.at/iad/immobilien/d/haus-kaufen/niederoesterreich/bruck-an-der-leitha/trautmannsdorf-seltene-gelegenheit-ehemaliges-fuhrwerkerhaus-mit-pferdestallungen-zahlreichen-nebengebaeuden-und-beeindruckendem-entwicklungspotenzial-1924508673/,willhaben.at,Bauernhaus,"Trautmannsdorf - Seltene Gelegenheit: Ehemaliges Fuhrwerkerhaus mit Pferdestallungen, zahlreichen Nebengebäuden und beeindruckendem Entwicklungspotenzial",Götzendorf Bahnhof,18
altes Bauernhaus mit Weinkeller in Breitenbrunn am Neusiedlersee,€ 230.000,65.0,,,0.0,Breitenbrunn,7091,47.92775,16.752977,https://www.willhaben.at/iad/immobilien/d/haus-kaufen/burgenland/eisenstadt-umgebung/altes-bauernhaus-mit-weinkeller-in-breitenbrunn-am-neusiedlersee-976344285/,willhaben.at,Bauernhaus,altes Bauernhaus mit Weinkeller in Breitenbrunn am Neusiedlersee,Jois Bahnhof,46
Ehemaliges Bauernhaus mit großem Baulandgrundstück,€ 395.000,122.0,,,5.0,Markersdorf an der Pielach,3385,48.19442,15.49897,https://www.willhaben.at/iad/immobilien/d/haus-kaufen/niederoesterreich/sankt-poelten-land/ehemaliges-bauernhaus-mit-grossem-baulandgrundstueck-1906669076/,willhaben.at,Bauernhaus,Ehemaliges Bauernhaus mit großem Baulandgrundstück,Prinzersdorf Bahnhof,40
Leben im Grünen: Nachhaltige Liegenschaft mit Bauernhaus viel Land und Selbstversorger-Potenzial!,€ 349.000,120.0,,,4.0,Ebenthal,2251,48.44053553,16.77478496,https://www.willhaben.at/iad/immobilien/d/haus-kaufen/niederoesterreich/gaenserndorf/leben-im-gruenen-nachhaltige-liegenschaft-mit-bauernhaus-viel-land-und-selbstversorger-potenzial-1679065618/,willhaben.at,Bauernhaus,Leben im Grünen: Nachhaltige Liegenschaft mit Bauernhaus viel Land und Selbstversorger-Potenzial!,Stillfried Bahnhof,60
Renovierungsbedürftiges Bauernhaus mit idyllischem Garten in Schalladorf,€ 129.900,90.0,,,4.0,Schalladorf,2022,48.63837484,16.14571585,https://www.willhaben.at/iad/immobilien/d/haus-kaufen/niederoesterreich/hollabrunn/renovierungsbeduerftiges-bauernhaus-mit-idyllischem-garten-in-schalladorf-2111337553/,willhaben.at,Bauernhaus,Renovierungsbedürftiges Bauernhaus mit idyllischem Garten in Schalladorf,Hetzmannsdorf-Wullersdorf Bhf.,49
"Eigenheim statt Miete zahlen | 623 m² Grund um nur EUR 112.500,-",€ 112.500,71.0,,,4.0,Hanfthal,2136,48.69679996,16.38064051,https://www.willhaben.at/iad/immobilien/d/haus-kaufen/niederoesterreich/mistelbach/eigenheim-statt-miete-zahlen-623-m-grund-um-nur-eur-112-500-1114006315/,willhaben.at,Bauernhaus,"Eigenheim statt Miete zahlen | 623 m² Grund um nur EUR 112.500,-",Laa/Thaya Bahnhof,78
Landhausidylle mit möglicher Tierhaltung,€ 319.500,129.0,,15.0,6.0,Neunkirchen,2620,47.71304,16.0675,https://www.willhaben.at/iad/immobilien/d/haus-kaufen/niederoesterreich/neunkirchen/landhausidylle-mit-moeglicher-tierhaltung-2145036060/,willhaben.at,Bauernhaus,Landhausidylle mit möglicher Tierhaltung,Neunkirchen Bahnhof,43
Einfamilienhaus in Ruhelage mit Weinkeller und Schuppen zu verkaufen!,€ 125.000,106.0,,,5.0,Unterretzbach,2074,48.76702,16.00371,https://www.willhaben.at/iad/immobilien/d/haus-kaufen/niederoesterreich/hollabrunn/einfamilienhaus-in-ruhelage-mit-weinkeller-und-schuppen-zu-verkaufen-1629721915/,willhaben.at,Bauernhaus,Einfamilienhaus in Ruhelage mit Weinkeller und Schuppen zu verkaufen!,Retz Bahnhof,71
Sonniges Landhaus mit vielseitigem Platzangebot!,€ 219.000,151.0,,,6.0,Zellerndorf,2051,48.69453,15.95674,https://www.willhaben.at/iad/immobilien/d/haus-kaufen/niederoesterreich/hollabrunn/sonniges-landhaus-mit-vielseitigem-platzangebot-1316523938/,willhaben.at,Bauernhaus,Sonniges Landhaus mit vielseitigem Platzangebot!,Platt Bahnhof,60
Altes Bauernhaus mit Wirtschaftsgebäuden zu verkaufen!,Preis auf Anfrage,,,,0.0,Köttlach,2640,47.66689019,15.94975668,https://www.willhaben.at/iad/immobilien/d/haus-kaufen/niederoesterreich/neunkirchen/altes-bauernhaus-mit-wirtschaftsgebaeuden-zu-verkaufen-692218104/,willhaben.at,Bauernhaus,Altes Bauernhaus mit Wirtschaftsgebäuden zu verkaufen!,Gloggnitz Bahnhof,51
LIEGENSCHAFT FÜR PERDE- UND NATURLIEBHABER 30 Minuten von Wien,Preis auf Anfrage,190.0,,25.0,4.0,Pressbaum,3021,48.176918,16.046209,https://www.willhaben.at/iad/immobilien/d/haus-kaufen/niederoesterreich/sankt-poelten-land/liegenschaft-fuer-perde-und-naturliebhaber-30-minuten-von-wien-1561750347/,willhaben.at,Bauernhaus,LIEGENSCHAFT FÜR PERDE- UND NATURLIEBHABER 30 Minuten von Wien,Tullnerbach-Pressbaum Bahnhof,17
BAUERNHAUS,€ 190.000,95.0,,,4.0,Unterretzbach,2074,48.76633,15.99697,https://www.willhaben.at/iad/immobilien/d/haus-kaufen/niederoesterreich/hollabrunn/bauernhaus-809635734/,willhaben.at,Bauernhaus,BAUERNHAUS,Retz Bahnhof,71
Bauernhof- oder Reiterhofidylle direkt vor den Toren Wiens,€ 480.000,95.0,,,3.0,Großhofen,2282,48.2589292,16.61669,https://www.willhaben.at/iad/immobilien/d/haus-kaufen/niederoesterreich/gaenserndorf/bauernhof-oder-reiterhofidylle-direkt-vor-den-toren-wiens-1467817007/,willhaben.at,Bauernhaus,Bauernhof- oder Reiterhofidylle direkt vor den Toren Wiens,Raasdorf Bahnhof,27
Bauernhof- oder Reiterhofidylle direkt vor den Toren Wiens,€ 800.000,95.0,,,3.0,Großhofen,2282,48.2589292,16.61669,https://www.willhaben.at/iad/immobilien/d/haus-kaufen/niederoesterreich/gaenserndorf/bauernhof-oder-reiterhofidylle-direkt-vor-den-toren-wiens-840107957/,willhaben.at,Bauernhaus,Bauernhof- oder Reiterhofidylle direkt vor den Toren Wiens,Raasdorf Bahnhof,27
"Traditionelles Bauernsacherl in erhöhter, ländlicher Lage nähe Wachau und Stift Melk - renovierungsbedürftig!",€ 159.000,190.0,,,6.0,Emmersdorf an der Donau,3644,48.2381357,15.31123693,https://www.willhaben.at/iad/immobilien/d/haus-kaufen/niederoesterreich/melk/traditionelles-bauernsacherl-in-erhoehter-laendlicher-lage-naehe-wachau-und-stift-melk-renovierungsbeduerftig-981034476/,willhaben.at,Bauernhaus,"Traditionelles Bauernsacherl in erhöhter, ländlicher Lage nähe Wachau und Stift Melk - renovierungsbedürftig!",Melk Bahnhof,51
Sofort beziehbares Wohnhaus mit Garten und riesigem Schrauber-Stadl!,€ 197.000,72.0,,,1.0,Platt,2051,48.670975,15.961882,https://www.willhaben.at/iad/immobilien/d/haus-kaufen/niederoesterreich/hollabrunn/sofort-beziehbares-wohnhaus-mit-garten-und-riesigem-schrauber-stadl-1576666875/,willhaben.at,Bauernhaus,Sofort beziehbares Wohnhaus mit Garten und riesigem Schrauber-Stadl!,Platt Bahnhof,60
Bauernhaus zum Abriss und Neubau mit viel langgezogenen Grund und Pool,€ 195.000,130.0,,,4.0,Enzersdorf an der Fischa,2431,48.092316,16.60633,https://www.willhaben.at/iad/immobilien/d/haus-kaufen/niederoesterreich/bruck-an-der-leitha/bauernhaus-zum-abriss-und-neubau-mit-viel-langgezogenen-grund-und-pool-775861391/,willhaben.at,Bauernhaus,Bauernhaus zum Abriss und Neubau mit viel langgezogenen Grund und Pool,Fischamend Bahnhof,38
Idyllischer Dreiseithof im Weinviertel - Viel Platz zum Wohlfühlen und Entspannen,€ 499.000,180.0,,1429.0,6.0,Guntersdorf,2042,48.64829,16.03788,https://www.willhaben.at/iad/immobilien/d/haus-kaufen/niederoesterreich/hollabrunn/idyllischer-dreiseithof-im-weinviertel-viel-platz-zum-wohlfuehlen-und-entspannen-1868498630/,willhaben.at,Bauernhof,Idyllischer Dreiseithof im Weinviertel - Viel Platz zum Wohlfühlen und Entspannen,Hetzmannsdorf-Wullersdorf Bhf.,49
"Innovatives, energieautarkes Zuhause im Grünen",€ 460.000,154.0,,60.0,5.0,Unterzögersdorf,2000,48.38265087,16.18220907,https://www.willhaben.at/iad/immobilien/d/haus-kaufen/niederoesterreich/korneuburg/innovatives-energieautarkes-zuhause-im-gruenen-1489328304/,willhaben.at,Bauernhof,"Innovatives, energieautarkes Zuhause im Grünen",Stockerau Bahnhof,19
"Seesuiten & Seevillen Lanzenkirchen - nachhaltig, luxuriös und einzigartig",ab € 691.000,,,,0.0,Lanzenkirchen,2821,47.74386259,16.20631174,https://www.willhaben.at/iad/immobilien/d/neubauprojekt/niederoesterreich/wiener-neustadt-land/seesuiten-seevillen-lanzenkirchen-nachhaltig-luxurioes-und-einzigartig-2048151794/,willhaben.at,Bauernhof,"Seesuiten & Seevillen Lanzenkirchen - nachhaltig, luxuriös und einzigartig",Pitten Bahnhof,53
"Exklusiver, generalsanierter, Hightech Streckhof mit mediterranen Flair!",€ 950.000,350.0,,,0.0,St. Pölten,3100,48.20691606,15.6192415,https://www.willhaben.at/iad/immobilien/d/haus-kaufen/niederoesterreich/sankt-poelten/exklusiver-generalsanierter-hightech-streckhof-mit-mediterranen-flair-2002907709/,willhaben.at,Bauernhof,"Exklusiver, generalsanierter, Hightech Streckhof mit mediterranen Flair!",St. Pölten Hauptbahnhof,26
"Exklusiver, generalsanierter, Hightech Streckhof mit mediterranen Flair!",€ 950.000,350.0,,,0.0,Haunoldstein,3384,48.19408153,15.44825959,https://www.willhaben.at/iad/immobilien/d/haus-kaufen/niederoesterreich/sankt-poelten-land/exklusiver-generalsanierter-hightech-streckhof-mit-mediterranen-flair-1079164601/,willhaben.at,Bauernhof,"Exklusiver, generalsanierter, Hightech Streckhof mit mediterranen Flair!",Prinzersdorf Bahnhof,40
Viel Potenzial auf 756m² - Sanierung oder Neubau möglich!,€ 249.000,98.0,,,3.0,Großebersdorf,2203,48.35950618,16.46434278,https://www.willhaben.at/iad/immobilien/d/haus-kaufen/niederoesterreich/mistelbach/viel-potenzial-auf-756m-sanierung-oder-neubau-moeglich-1962995272/,willhaben.at,Bauernhof,Viel Potenzial auf 756m² - Sanierung oder Neubau möglich!,Kapellerfeld Bahnhof,22
"Skandinavisch & Alpin in der Nähe von Wien - mit viel Platz für Büro/Praxis, Baujahr 2018",€ 999.000,253.0,,,9.0,Eichgraben,3032,48.166916,15.97462,https://www.willhaben.at/iad/immobilien/d/haus-kaufen/niederoesterreich/sankt-poelten-land/skandinavisch-alpin-in-der-naehe-von-wien-mit-viel-platz-fuer-buero-praxis-baujahr-2018-1638550983/,willhaben.at,Bauernhof,"Skandinavisch & Alpin in der Nähe von Wien - mit viel Platz für Büro/Praxis, Baujahr 2018",Eichgraben-Altlengbach Bahnhof,28
Wohnen mit den eigenen Pferden - ehemaliger Bauernhof mit vielfachen Nutzungsmöglichkeiten,€ 820.000,140.0,,,5.0,Steinbrunn,7035,47.835976,16.414356,https://www.willhaben.at/iad/immobilien/d/haus-kaufen/burgenland/eisenstadt-umgebung/wohnen-mit-den-eigenen-pferden-ehemaliger-bauernhof-mit-vielfachen-nutzungsmoeglichkeiten-2138185594/,willhaben.at,Bauernhof,Wohnen mit den eigenen Pferden - ehemaliger Bauernhof mit vielfachen Nutzungsmöglichkeiten,Ebenfurth Bahnhof,42
"PREISREDUZIERUNG: Ein perfekt gelegener, nicht einsehbarer Bauernhof!",€ 179.000,103.0,,,4.0,Jedenspeigen,2264,48.502094,16.874662,https://www.willhaben.at/iad/immobilien/d/haus-kaufen/niederoesterreich/gaenserndorf/preisreduzierung-ein-perfekt-gelegener-nicht-einsehbarer-bauernhof-1264501563/,willhaben.at,Bauernhof,"PREISREDUZIERUNG: Ein perfekt gelegener, nicht einsehbarer Bauernhof!",Dürnkrut Bahnhof,61
2014 Puch - Bauernhof für Wohnen und Gewerbe - 30 min von Wien !,€ 178.000,180.0,,,6.0,Puch,2014,48.49892,16.04183,https://www.willhaben.at/iad/immobilien/d/haus-kaufen/niederoesterreich/hollabrunn/2014-puch-bauernhof-fuer-wohnen-und-gewerbe-30-min-von-wien-1983399227/,willhaben.at,Bauernhof,2014 Puch - Bauernhof für Wohnen und Gewerbe - 30 min von Wien !,Breitenwaida Bahnhof,47
Ehemalige Schlosserei mit großzügigem Raumangebot zur freien Entfaltung,€ 299.000,,,,0.0,Mistelbach,2130,48.56836268,16.56976834,https://www.willhaben.at/iad/immobilien/d/haus-kaufen/niederoesterreich/mistelbach/ehemalige-schlosserei-mit-grosszuegigem-raumangebot-zur-freien-entfaltung-1719586381/,willhaben.at,Landhaus,Ehemalige Schlosserei mit großzügigem Raumangebot zur freien Entfaltung,Ladendorf Bahnhof,45
Luxuriöses Einfamilienhaus mit 2 Pools (Indoor & Outdoor) und Wellnessbereich,€ 780.000,290.0,,169.0,7.0,Mollersdorf,3430,48.36496793,15.99969564,https://www.willhaben.at/iad/immobilien/d/haus-kaufen/niederoesterreich/tulln/luxurioeses-einfamilienhaus-mit-2-pools-indoor-outdoor-und-wellnessbereich-1835023387/,willhaben.at,Landhaus,Luxuriöses Einfamilienhaus mit 2 Pools (Indoor & Outdoor) und Wellnessbereich,Absdorf-Hippersdorf Bahnhof,47
"2831 Warth, Idyllisches und ruhig gelegenes Landhaus in der Buckligen Welt",€ 319.000,160.0,,,4.0,Warth,2831,47.64397183,16.11969568,https://www.willhaben.at/iad/immobilien/d/haus-kaufen/niederoesterreich/neunkirchen/2831-warth-idyllisches-und-ruhig-gelegenes-landhaus-in-der-buckligen-welt-1330158621/,willhaben.at,Landhaus,"2831 Warth, Idyllisches und ruhig gelegenes Landhaus in der Buckligen Welt",Scheiblingkirchen-Warth Bhf.,62
"Vollrenoviertes, energie-effizientes Landhaus für Künstler & Individualisten",€ 749.000,227.0,,324.0,5.0,Maria-Lanzendorf,2326,48.09998313,16.42157462,https://www.willhaben.at/iad/immobilien/d/haus-kaufen/niederoesterreich/bruck-an-der-leitha/vollrenoviertes-energie-effizientes-landhaus-fuer-kuenstler-individualisten-879046604/,willhaben.at,Landhaus,"Vollrenoviertes, energie-effizientes Landhaus für Künstler & Individualisten",Kledering Bahnhof,8
"Familienhit mit großem Garten, Nebengebäuden und Bahnanschluss",€ 349.000,143.0,,,3.0,Niederkreuzstetten,2124,48.478141,16.477716,https://www.willhaben.at/iad/immobilien/d/haus-kaufen/niederoesterreich/mistelbach/familienhit-mit-grossem-garten-nebengebaeuden-und-bahnanschluss-1892165620/,willhaben.at,Landhaus,"Familienhit mit großem Garten, Nebengebäuden und Bahnanschluss",Niederkreuzstetten Bahnhof,38
"Ruhig wohnen am Ortsrand - außergewöhnliches 4-Zimmer Einfamilienhaus mit viel Platz für Familie, Hobby & Erholung",€ 265.000,120.0,,198.0,4.0,Hausbrunn,2145,48.62394688,16.8302109,https://www.willhaben.at/iad/immobilien/d/haus-kaufen/niederoesterreich/mistelbach/ruhig-wohnen-am-ortsrand-aussergewoehnliches-4-zimmer-einfamilienhaus-mit-viel-platz-fuer-familie-hobby-erholung-1150548369/,willhaben.at,Landhaus,"Ruhig wohnen am Ortsrand - außergewöhnliches 4-Zimmer Einfamilienhaus mit viel Platz für Familie, Hobby & Erholung",Hohenau,72
Ruhe-Oase mit Urlaubs-Flair in Sierndorf - Mehrfamilienhaus mit 3 Wohneinheiten zu kaufen!,€ 935.000,400.0,,,14.0,Sierndorf,2011,48.431824,16.164377,https://www.willhaben.at/iad/immobilien/d/haus-kaufen/niederoesterreich/korneuburg/ruhe-oase-mit-urlaubs-flair-in-sierndorf-mehrfamilienhaus-mit-3-wohneinheiten-zu-kaufen-1471344065/,willhaben.at,Landhaus,Ruhe-Oase mit Urlaubs-Flair in Sierndorf - Mehrfamilienhaus mit 3 Wohneinheiten zu kaufen!,Stockerau Bahnhof,19
"Landhaus, Schlossartig plus ATOMBUNKER",€ 359.000,360.0,,,4.0,Pamhagen,7152,47.71902,16.91419,https://www.willhaben.at/iad/immobilien/d/haus-kaufen/burgenland/neusiedl-am-see/landhaus-schlossartig-plus-atombunker-986632404/,willhaben.at,Landhaus,"Landhaus, Schlossartig plus ATOMBUNKER",Wallern im Bgld Bahnhof,76
"Vorfreude auf den Sommer 2026! Einzigartiges Wohnen, Arbeiten und Leben in Traumruhelage!",€ 540.000,158.0,,20.0,5.0,Perschling,3142,48.24665236,15.80118918,https://www.willhaben.at/iad/immobilien/d/haus-kaufen/niederoesterreich/sankt-poelten-land/vorfreude-auf-den-sommer-2026-einzigartiges-wohnen-arbeiten-und-leben-in-traumruhelage-2014964607/,willhaben.at,Landhaus,"Vorfreude auf den Sommer 2026! Einzigartiges Wohnen, Arbeiten und Leben in Traumruhelage!",Böheimkirchen Bahnhof,46
Landhaus Petronell Carnuntum Privatverkauf,€ 380.000,100.0,,,0.0,Petronell-Carnuntum,2404,48.111923,16.866526,https://www.willhaben.at/iad/immobilien/d/haus-kaufen/niederoesterreich/bruck-an-der-leitha/landhaus-petronell-carnuntum-privatverkauf-1445506796/,willhaben.at,Landhaus,Landhaus Petronell Carnuntum Privatverkauf,Regelsbrunn Bahnhof,50
Geräumiges Landhaus in Zentrumsnähe,€ 740.000,340.0,,22.0,8.0,Pressbaum,3021,48.16691828,16.06206455,https://www.willhaben.at/iad/immobilien/d/haus-kaufen/niederoesterreich/sankt-poelten-land/geraeumiges-landhaus-in-zentrumsnaehe-1219411334/,willhaben.at,Landhaus,Geräumiges Landhaus in Zentrumsnähe,Tullnerbach-Pressbaum Bahnhof,17
Privatverkauf - Wohnen mit Bergpanorama - nur eine Stunde von Wien entfernt,€ 319.000,118.0,,,4.0,Semmering-Kurort,2680,47.6341,15.83257,https://www.willhaben.at/iad/immobilien/d/haus-kaufen/niederoesterreich/neunkirchen/privatverkauf-wohnen-mit-bergpanorama-nur-eine-stunde-von-wien-entfernt-896713449/,willhaben.at,Landhaus,Privatverkauf - Wohnen mit Bergpanorama - nur eine Stunde von Wien entfernt,Semmering Bahnhof,75
"Landidylle-Landhaus zu kaufen mit viel Potenzial, 2 Wohneinheiten in Wien Nähe",€ 250.000,167.0,,,7.0,Ulrichskirchen,2122,48.397636,16.493063,https://www.willhaben.at/iad/immobilien/d/haus-kaufen/niederoesterreich/mistelbach/landidylle-landhaus-zu-kaufen-mit-viel-potenzial-2-wohneinheiten-in-wien-naehe-2142668481/,willhaben.at,Landhaus,"Landidylle-Landhaus zu kaufen mit viel Potenzial, 2 Wohneinheiten in Wien Nähe",Obersdorf Bahnhof,23
Auf den Spuren der Kaiserin - Das Geheimnis eines Erfolges - Landhaus mit Park,€ 7.499.000,940.0,,,9.0,"Wien, 23. Bezirk, Liesing",1230,48.14408,16.29152,https://www.willhaben.at/iad/immobilien/d/haus-kaufen/wien/wien-1230-liesing/auf-den-spuren-der-kaiserin-das-geheimnis-eines-erfolges-landhaus-mit-park-1575306225/,willhaben.at,Landhaus,Auf den Spuren der Kaiserin - Das Geheimnis eines Erfolges - Landhaus mit Park,Hennersdorf Bahnhof,15
Landhaus in Ruhelage mit Gartenpark und Schwimmteich,€ 750.000,158.0,,2359.0,5.0,Potzneusiedl,2473,48.04653855,16.94114943,https://www.willhaben.at/iad/immobilien/d/haus-kaufen/burgenland/neusiedl-am-see/landhaus-in-ruhelage-mit-gartenpark-und-schwimmteich-1411633648/,willhaben.at,Landhaus,Landhaus in Ruhelage mit Gartenpark und Schwimmteich,Neudorf,40
ATEMBERAUBEND,€ 2.490.000,420.0,,,0.0,Gumpoldskirchen,2352,48.04892112,16.26004119,https://www.willhaben.at/iad/immobilien/d/haus-kaufen/niederoesterreich/moedling/atemberaubend-1008204409/,willhaben.at,Landhaus,ATEMBERAUBEND,Baden Bahnhof,20
"GERÄUMIGES, ENERGIE-EFFIZIENTES FAMILIENDOMIZIL IM ALTEN ORTSKERN VON BREITENWAIDA!",€ 550.000,282.0,,,7.0,Breitenwaida,2014,48.51207,16.067282,https://www.willhaben.at/iad/immobilien/d/haus-kaufen/niederoesterreich/hollabrunn/geraeumiges-energie-effizientes-familiendomizil-im-alten-ortskern-von-breitenwaida-1247500692/,willhaben.at,Landhaus,"GERÄUMIGES, ENERGIE-EFFIZIENTES FAMILIENDOMIZIL IM ALTEN ORTSKERN VON BREITENWAIDA!",Hollabrunn Bahnhof,43
Elegantes Landhaus mit stilvoller Wohnatmosphäre und Wellnessbereich,€ 999.000,346.0,,72.0,0.0,Nitzing,3430,48.30685094,16.09941515,https://www.willhaben.at/iad/immobilien/d/haus-kaufen/niederoesterreich/tulln/elegantes-landhaus-mit-stilvoller-wohnatmosphaere-und-wellnessbereich-1525651540/,willhaben.at,Landhaus,Elegantes Landhaus mit stilvoller Wohnatmosphäre und Wellnessbereich,Tulln Stadt Bahnhof,67
"TRADITIONELLER STRECKHOF MIT GARTEN, SCHEUNE UND ZWEITER ZUFAHRT - BAURESERVE",€ 275.000,100.0,,,5.0,Großhöflein,7051,47.83446,16.481434,https://www.willhaben.at/iad/immobilien/d/haus-kaufen/burgenland/eisenstadt-umgebung/traditioneller-streckhof-mit-garten-scheune-und-zweiter-zufahrt-baureserve-1882632150/,willhaben.at,Landhaus,"TRADITIONELLER STRECKHOF MIT GARTEN, SCHEUNE UND ZWEITER ZUFAHRT - BAURESERVE",Eisenstadt Schule,67
"GROSSZÜGIGES LANDHAUS MIT GESCHLOSSENEM INNENHOF, STADEL, WERKSTATT UND NEBENGEBÄUDEN SAMT WEINKELLER IN PARADIESISCHER GRÜNRUHELAGE",€ 295.000,179.0,,,6.0,Puch,2014,48.51207,16.067282,https://www.willhaben.at/iad/immobilien/d/haus-kaufen/niederoesterreich/hollabrunn/grosszuegiges-landhaus-mit-geschlossenem-innenhof-stadel-werkstatt-und-nebengebaeuden-samt-weinkeller-in-paradiesischer-gruenruhelage-842252309/,willhaben.at,Landhaus,"GROSSZÜGIGES LANDHAUS MIT GESCHLOSSENEM INNENHOF, STADEL, WERKSTATT UND NEBENGEBÄUDEN SAMT WEINKELLER IN PARADIESISCHER GRÜNRUHELAGE",Hollabrunn Bahnhof,43
SANIERUNGSBEDÜRFTIGES LANDHAUS MIT KLEINEM HOLZSCHUPPEN UND RUHIGEM INNENHOF AN DER WAGRAMKANTE MIT KLEINEM WEINKELLER FÜR 1-2 PERSONEN,€ 117.000,52.0,,,2.0,Stetteldorf am Wagram,3463,48.405796,16.019117,https://www.willhaben.at/iad/immobilien/d/haus-kaufen/niederoesterreich/korneuburg/sanierungsbeduerftiges-landhaus-mit-kleinem-holzschuppen-und-ruhigem-innenhof-an-der-wagramkante-mit-kleinem-weinkeller-fuer-1-2-personen-1666425399/,willhaben.at,Landhaus,SANIERUNGSBEDÜRFTIGES LANDHAUS MIT KLEINEM HOLZSCHUPPEN UND RUHIGEM INNENHOF AN DER WAGRAMKANTE MIT KLEINEM WEINKELLER FÜR 1-2 PERSONEN,Hausleiten Bahnhof,38
Idyllische Ruhelage mit Traumaussicht & Pool - interessant für Bauträger ( 1.300 m² Bauland),€ 1.100.000,155.0,,70.0,5.0,Maria-Anzbach,3034,48.17301239,15.92983438,https://www.willhaben.at/iad/immobilien/d/haus-kaufen/niederoesterreich/sankt-poelten-land/idyllische-ruhelage-mit-traumaussicht-pool-interessant-fuer-bautraeger-1-300-m-bauland-1205500306/,willhaben.at,Landhaus,Idyllische Ruhelage mit Traumaussicht & Pool - interessant für Bauträger ( 1.300 m² Bauland),Eichgraben-Altlengbach Bahnhof,28
Landhaus umgeben von der Natur!,€ 299.000,190.0,,28.0,0.0,Freyenstein,3323,48.1695976,14.98649546,https://www.willhaben.at/iad/immobilien/d/haus-kaufen/niederoesterreich/amstetten/landhaus-umgeben-von-der-natur-2126999974/,willhaben.at,Landhaus,Landhaus umgeben von der Natur!,Neumarkt/Ybbs-Karlsbach Bf.,70
"Landhaus mit 6 Zimmern, Pool, Keller, Doppelcarport und großer Sommerterrasse",€ 390.000,154.0,,29.0,6.0,Sigleß,7032,47.7718002,16.3940154,https://www.willhaben.at/iad/immobilien/d/haus-kaufen/burgenland/mattersburg/landhaus-mit-6-zimmern-pool-keller-doppelcarport-und-grosser-sommerterrasse-1921050472/,willhaben.at,Landhaus,"Landhaus mit 6 Zimmern, Pool, Keller, Doppelcarport und großer Sommerterrasse",Mattersburg Bahnhof,54
Traumhafte Immobilie - mitten in der Natur / Bezirk Mödling!,€ 1.280.000,270.0,,120.0,6.0,Achau,2481,48.07130488,16.39141581,https://www.willhaben.at/iad/immobilien/d/haus-kaufen/niederoesterreich/moedling/traumhafte-immobilie-mitten-in-der-natur-bezirk-moedling-1324617498/,willhaben.at,Landhaus,Traumhafte Immobilie - mitten in der Natur / Bezirk Mödling!,Lanzendorf-Rannersdorf Bahnhof,10
Altes Herrschaftshaus mit Potential am Semmering,€ 590.000,750.0,,,0.0,Schottwien,2641,47.646057,15.86304,https://www.willhaben.at/iad/immobilien/d/haus-kaufen/niederoesterreich/neunkirchen/altes-herrschaftshaus-mit-potential-am-semmering-1716288936/,willhaben.at,Landhaus,Altes Herrschaftshaus mit Potential am Semmering,Semmering Bahnhof,75
"LIEBEVOLLES, SANIERUNGSBEDÜRFTIGES LANDHAUS MIT KLEINEM HOLZSCHUPPEN UND RUHIGEM INNENHOF MIT BESTER INFRASTRUKTUR UND BAHNANBINDUNG",€ 175.000,60.0,,,3.0,Absdorf,3462,48.39942,15.973492,https://www.willhaben.at/iad/immobilien/d/haus-kaufen/niederoesterreich/tulln/liebevolles-sanierungsbeduerftiges-landhaus-mit-kleinem-holzschuppen-und-ruhigem-innenhof-mit-bester-infrastruktur-und-bahnanbindung-2031401635/,willhaben.at,Landhaus,"LIEBEVOLLES, SANIERUNGSBEDÜRFTIGES LANDHAUS MIT KLEINEM HOLZSCHUPPEN UND RUHIGEM INNENHOF MIT BESTER INFRASTRUKTUR UND BAHNANBINDUNG",Absdorf-Hippersdorf Bahnhof,47
"Historisches, sanierungsbedürftiges Winzerhaus mit großem Ruhegarten | ZELLMANN IMMOBILIEN",€ 550.000,127.0,,,5.0,Bad Vöslau,2540,47.9706526,16.2148408,https://www.willhaben.at/iad/immobilien/d/haus-kaufen/niederoesterreich/baden/historisches-sanierungsbeduerftiges-winzerhaus-mit-grossem-ruhegarten-zellmann-immobilien-1458565167/,willhaben.at,Landhaus,"Historisches, sanierungsbedürftiges Winzerhaus mit großem Ruhegarten | ZELLMANN IMMOBILIEN",Baden Bahnhof,20
Exklusiver Landtraum mit höchster Wohnqualität in Winden am See,€ 450.000,165.0,,395.0,5.0,Winden am See,7092,47.96197795,16.7562181,https://www.willhaben.at/iad/immobilien/d/haus-kaufen/burgenland/neusiedl-am-see/exklusiver-landtraum-mit-hoechster-wohnqualitaet-in-winden-am-see-917813354/,willhaben.at,Landhaus,Exklusiver Landtraum mit höchster Wohnqualität in Winden am See,Bruck/Leitha Bahnhof,27
Nur 20 Autominuten von Wien entfernt! Traumhafte Liegenschaft mit Top Ausstattung,€ 850.000,250.0,,102.0,6.0,Hautzendorf,2123,48.44826201,16.50128493,https://www.willhaben.at/iad/immobilien/d/haus-kaufen/niederoesterreich/mistelbach/nur-20-autominuten-von-wien-entfernt-traumhafte-liegenschaft-mit-top-ausstattung-2074394119/,willhaben.at,Landhaus,Nur 20 Autominuten von Wien entfernt! Traumhafte Liegenschaft mit Top Ausstattung,Schleinbach Bahnhof,32
ARZTVILLA IN LINZER TRAUMLAGE * JUWEL IM DORNRÖSCHENSCHLAF,€ 1.750.000,189.0,,1432.0,6.0,Linz,4040,48.31730899,14.2695579,https://www.willhaben.at/iad/immobilien/d/haus-kaufen/oberoesterreich/linz/arztvilla-in-linzer-traumlage-juwel-im-dornroeschenschlaf-1789279713/,willhaben.at,Landhaus,ARZTVILLA IN LINZER TRAUMLAGE * JUWEL IM DORNRÖSCHENSCHLAF,Linz/Donau Hauptbahnhof,75
"RARITÄT IN HOLLABRUNN: CHARMANTES, SANIERUNGSBEDÜRTIGES LANDHAUS MIT BAULANDRESERVE IN SEHR GUTER WOHNLAGE MIT HERRLICHEM GARTEN SAMT ALTBAUMBESTAND",€ 349.000,130.0,,28.0,6.0,Hollabrunn,2020,48.54817,16.072758,https://www.willhaben.at/iad/immobilien/d/haus-kaufen/niederoesterreich/hollabrunn/raritaet-in-hollabrunn-charmantes-sanierungsbeduertiges-landhaus-mit-baulandreserve-in-sehr-guter-wohnlage-mit-herrlichem-garten-samt-altbaumbestand-1262398927/,willhaben.at,Landhaus,"RARITÄT IN HOLLABRUNN: CHARMANTES, SANIERUNGSBEDÜRTIGES LANDHAUS MIT BAULANDRESERVE IN SEHR GUTER WOHNLAGE MIT HERRLICHEM GARTEN SAMT ALTBAUMBESTAND",Hollabrunn Bahnhof,43
Natur PUR! Idyllisch ländlich!,€ 329.000,92.0,,,3.0,Hautzendorf,2123,48.424736,16.480574,https://www.willhaben.at/iad/immobilien/d/haus-kaufen/niederoesterreich/mistelbach/natur-pur-idyllisch-laendlich-1721154416/,willhaben.at,Landhaus,Natur PUR! Idyllisch ländlich!,Wolkersdorf Bahnhof,26
Charmantes Einfamilienhaus im Naturparadies,€ 319.000,160.0,,,4.0,Warth,2831,47.651897,16.074203,https://www.willhaben.at/iad/immobilien/d/haus-kaufen/niederoesterreich/neunkirchen/charmantes-einfamilienhaus-im-naturparadies-863910623/,willhaben.at,Landhaus,Charmantes Einfamilienhaus im Naturparadies,Scheiblingkirchen-Warth Bhf.,62
Wohnen mit Seele: Liebevoll erhaltener Streckhof in Ruhelage mit Blick auf den Neusiedler See,€ 798.000,361.0,,,6.0,Breitenbrunn,7091,47.92775,16.752977,https://www.willhaben.at/iad/immobilien/d/haus-kaufen/burgenland/eisenstadt-umgebung/wohnen-mit-seele-liebevoll-erhaltener-streckhof-in-ruhelage-mit-blick-auf-den-neusiedler-see-837472497/,willhaben.at,Landhaus,Wohnen mit Seele: Liebevoll erhaltener Streckhof in Ruhelage mit Blick auf den Neusiedler See,Jois Bahnhof,46
"1 Grundstück mit 1253 m2 Fläche: 2 Landhäuser (ca. 100 m2 und ca. 82 m2) - 50 km von Wien entfernt - durch Innenhof komplett getrennt, an Natur- u. Ga",€ 645.000,180.0,,,0.0,Hollabrunn,2020,48.54817,16.072758,https://www.willhaben.at/iad/immobilien/d/haus-kaufen/niederoesterreich/hollabrunn/1-grundstueck-mit-1253-m2-flaeche-2-landhaeuser-ca-100-m2-und-ca-82-m2-50-km-von-wien-entfernt-durch-innenhof-komplett-getrennt-an-natur-u-gartenfreunde-zu-verkaufen-796818319/,willhaben.at,Landhaus,"1 Grundstück mit 1253 m2 Fläche: 2 Landhäuser (ca. 100 m2 und ca. 82 m2) - 50 km von Wien entfernt - durch Innenhof komplett getrennt, an Natur- u. Gartenfreunde zu verkaufen",Hollabrunn Bahnhof,43
"€ 660.000,- neuer Preis - ein liebevoll renoviertes Haus mit Geschichte",€ 660.000,150.0,,,4.0,Baden,2500,48.001522,16.230608,https://www.willhaben.at/iad/immobilien/d/haus-kaufen/niederoesterreich/baden/-euro-660-000-neuer-preis-ein-liebevoll-renoviertes-haus-mit-geschichte-1534547721/,willhaben.at,Landhaus,"€ 660.000,- neuer Preis - ein liebevoll renoviertes Haus mit Geschichte",Baden Bahnhof,20
Ladendorf - unterkellertes Landhaus in ruhiger Toplage - Eckparzelle mit Garten - beste Infrastruktur,€ 179.000,90.0,,,0.0,Ladendorf,2126,48.533726,16.490183,https://www.willhaben.at/iad/immobilien/d/haus-kaufen/niederoesterreich/mistelbach/ladendorf-unterkellertes-landhaus-in-ruhiger-toplage-eckparzelle-mit-garten-beste-infrastruktur-2094787802/,willhaben.at,Landhaus,Ladendorf - unterkellertes Landhaus in ruhiger Toplage - Eckparzelle mit Garten - beste Infrastruktur,Ladendorf Bahnhof,45
Sanierungsschnäppchen in Fußnähe zum Zentrum Baden!,€ 349.000,154.0,,50.0,0.0,Baden,2500,48.00319565,16.23649767,https://www.willhaben.at/iad/immobilien/d/haus-kaufen/niederoesterreich/baden/sanierungsschnaeppchen-in-fussnaehe-zum-zentrum-baden-1305881810/,willhaben.at,Landhaus,Sanierungsschnäppchen in Fußnähe zum Zentrum Baden!,Baden Bahnhof,20
ein Vierkanthof wie aus dem Bilderbuch - traumhafte Landidylle in absoluter Ruhelage,Preis auf Anfrage,650.0,,,10.0,Oberhautzental,2011,48.4403016,16.13271421,https://www.willhaben.at/iad/immobilien/d/haus-kaufen/niederoesterreich/korneuburg/ein-vierkanthof-wie-aus-dem-bilderbuch-traumhafte-landidylle-in-absoluter-ruhelage-1697837067/,willhaben.at,Landhaus,ein Vierkanthof wie aus dem Bilderbuch - traumhafte Landidylle in absoluter Ruhelage,Oberolberndorf Bahnhof,30
Dreistetten - stilvoller Landsitz mit Blick auf Hohe Wand und Fischauer Vorberge...,€ 695.000,205.0,,58.0,7.0,Dreistetten,2753,47.84941962,16.11851503,https://www.willhaben.at/iad/immobilien/d/haus-kaufen/niederoesterreich/wiener-neustadt-land/dreistetten-stilvoller-landsitz-mit-blick-auf-hohe-wand-und-fischauer-vorberge-1413959724/,willhaben.at,Landhaus,Dreistetten - stilvoller Landsitz mit Blick auf Hohe Wand und Fischauer Vorberge...,Bad Fischau Bahnhof,64
"Velm - Götzendorf: Gänserndorf- Nähe: kleines Landhaus im Ortsverband, zum Sofortbezug",€ 95.000,55.0,,,2.0,Velm-Götzendorf,2245,48.46636824,16.80747649,https://www.willhaben.at/iad/immobilien/d/haus-kaufen/niederoesterreich/gaenserndorf/velm-goetzendorf-gaenserndorf-naehe-kleines-landhaus-im-ortsverband-zum-sofortbezug-934477951/,willhaben.at,Landhaus,"Velm - Götzendorf: Gänserndorf- Nähe: kleines Landhaus im Ortsverband, zum Sofortbezug",Dürnkrut Bahnhof,61
Prächtiges Landhaus mit Potenzial im Pressbaumer Zentrum - Grundstück teilbar!,€ 790.000,251.0,,,6.0,Pressbaum,3021,48.17277095,16.06973949,https://www.willhaben.at/iad/immobilien/d/haus-kaufen/niederoesterreich/sankt-poelten-land/praechtiges-landhaus-mit-potenzial-im-pressbaumer-zentrum-grundstueck-teilbar-1542143849/,willhaben.at,Landhaus,Prächtiges Landhaus mit Potenzial im Pressbaumer Zentrum - Grundstück teilbar!,Tullnerbach-Pressbaum Bahnhof,17
"Historische Substanz, modern veredelt - ein echtes Schmuckstück. Außergewöhnlich und einzigartig inszeniert",€ 1.850.000,460.0,,,7.0,Purbach am Neusiedler See,7083,47.91316,16.698298,https://www.willhaben.at/iad/immobilien/d/haus-kaufen/burgenland/eisenstadt-umgebung/historische-substanz-modern-veredelt-ein-echtes-schmuckstueck-aussergewoehnlich-und-einzigartig-inszeniert-1690834079/,willhaben.at,Landhaus,"Historische Substanz, modern veredelt - ein echtes Schmuckstück. Außergewöhnlich und einzigartig inszeniert",Winden am See Bahnhof,48
Landhaus-Bungalow am Esterhazysee,€ 130.000,62.0,,16.0,3.0,Trausdorf an der Wulka,7061,47.82479621,16.59051187,https://www.willhaben.at/iad/immobilien/d/haus-kaufen/burgenland/eisenstadt-umgebung/landhaus-bungalow-am-esterhazysee-1892570704/,willhaben.at,Landhaus,Landhaus-Bungalow am Esterhazysee,Schützen am Gebirge Haltestelle,61
Landhaus in privilegierter Bestlage,€ 780.000,170.0,,30.0,6.0,Neusiedl am See,7100,47.94565057,16.86062917,https://www.willhaben.at/iad/immobilien/d/haus-kaufen/burgenland/neusiedl-am-see/landhaus-in-privilegierter-bestlage-814372241/,willhaben.at,Landhaus,Landhaus in privilegierter Bestlage,Parndorf Ort Bahnhof,33
Landhaus mit drei getrennt begehbaren Wohneinheiten beim Skigebiet Semmering,€ 298.000,257.0,,,8.0,Steinhaus am Semmering,8685,47.619423,15.7975645,https://www.willhaben.at/iad/immobilien/d/haus-kaufen/steiermark/bruck-muerzzuschlag/landhaus-mit-drei-getrennt-begehbaren-wohneinheiten-beim-skigebiet-semmering-2057820994/,willhaben.at,Landhaus,Landhaus mit drei getrennt begehbaren Wohneinheiten beim Skigebiet Semmering,Semmering Bahnhof,75
Reihenhaus-Böhmischer Prater: Urban und Grün,€ 479.990,80.0,,52.0,4.0,"Wien, 10. Bezirk, Favoriten",1100,48.16422628,16.4080173,https://www.willhaben.at/iad/immobilien/d/haus-kaufen/wien/wien-1100-favoriten/reihenhaus-boehmischer-prater-urban-und-gruen-875574561/,willhaben.at,Landgut,Reihenhaus-Böhmischer Prater: Urban und Grün,Kledering Bahnhof,8
Landgut ca. 6200 m² in 2262 Stillfried,€ 579.000,265.0,,,5.0,Stillfried,2262,48.412727,16.842562,https://www.willhaben.at/iad/immobilien/d/haus-kaufen/niederoesterreich/gaenserndorf/landgut-ca-6200-m-in-2262-stillfried-1625962744/,willhaben.at,Landgut,Landgut ca. 6200 m² in 2262 Stillfried,Angern,54
Exklusiv & begehrt - Moderne Eigentumswohnungen im Projekt ReLAX 151!,ab € 285.000,,,,0.0,"Wien, 10. Bezirk, Favoriten",1100,48.16328,16.36803,https://www.willhaben.at/iad/immobilien/d/neubauprojekt/wien/wien-1100-favoriten/exklusiv-begehrt-moderne-eigentumswohnungen-im-projekt-relax-151-966281296/,willhaben.at,Landgut,Exklusiv & begehrt - Moderne Eigentumswohnungen im Projekt ReLAX 151!,Kledering Bahnhof,8
Hochwertige Kleingarten-Villa am Laaer Berg - Oase mit perfekter U1-Anbindung!,€ 829.000,183.0,,34.0,5.0,"Wien, 10. Bezirk, Favoriten",1100,48.15842033,16.38562607,https://www.willhaben.at/iad/immobilien/d/haus-kaufen/wien/wien-1100-favoriten/hochwertige-kleingarten-villa-am-laaer-berg-oase-mit-perfekter-u1-anbindung-1374204448/,willhaben.at,Landgut,Hochwertige Kleingarten-Villa am Laaer Berg - Oase mit perfekter U1-Anbindung!,Kledering Bahnhof,8
"Architektonische Loft-Residenz auf 5.657 m² Privatgrundstück mit Wald, Pool und absoluter Privatsphäre - 10 Minuten von Bratislava",€ 3.800.000,311.0,,91.0,7.0,Berg,2413,48.10728629,17.03121418,https://www.willhaben.at/iad/immobilien/d/haus-kaufen/niederoesterreich/bruck-an-der-leitha/architektonische-loft-residenz-auf-5-657-m-privatgrundstueck-mit-wald-pool-und-absoluter-privatsphaere-10-minuten-von-bratislava-1387417172/,willhaben.at,Landgut,"Architektonische Loft-Residenz auf 5.657 m² Privatgrundstück mit Wald, Pool und absoluter Privatsphäre - 10 Minuten von Bratislava",Kittsee Bahnhof,50
Landhaus mit ca. 5408 m² Grund im Weinviertel - Wohnkomfort & Landwirtschaft vereint,€ 798.000,444.0,,,10.0,Untergrub,2013,48.49005019,16.18170815,https://www.willhaben.at/iad/immobilien/d/haus-kaufen/niederoesterreich/hollabrunn/landhaus-mit-ca-5408-m-grund-im-weinviertel-wohnkomfort-landwirtschaft-vereint-1817575993/,willhaben.at,Landgut,Landhaus mit ca. 5408 m² Grund im Weinviertel - Wohnkomfort & Landwirtschaft vereint,Höbersdorf Bahnhof,36
Exklusive Architektenvilla auf außergewöhnlichem Eigengrund in begehrter Grünlage am Laaer Berg,€ 1.250.000,216.0,,89.0,6.0,"Wien, 10. Bezirk, Favoriten",1100,48.157949,16.406465,https://www.willhaben.at/iad/immobilien/d/haus-kaufen/wien/wien-1100-favoriten/exklusive-architektenvilla-auf-aussergewoehnlichem-eigengrund-in-begehrter-gruenlage-am-laaer-berg-1869917784/,willhaben.at,Landgut,Exklusive Architektenvilla auf außergewöhnlichem Eigengrund in begehrter Grünlage am Laaer Berg,Kledering Bahnhof,8
"""Kleingartensommerhaus Moselgasse""",€ 350.000,30.0,,,1.0,"Wien, 10. Bezirk, Favoriten",1100,48.166226,16.392982,https://www.willhaben.at/iad/immobilien/d/haus-kaufen/wien/wien-1100-favoriten/-kleingartensommerhaus-moselgasse-1081437089/,willhaben.at,Landgut,"""Kleingartensommerhaus Moselgasse""",Kledering Bahnhof,8
"EHEMALIGES GEHÖFT MIT GROSSEM GARTEN, SCHEUNE UND NEBENGEBÄUDEN/GARAGEN!",€ 299.000,111.0,,,4.0,Schattendorf,7022,47.7076998,16.5071421,https://www.willhaben.at/iad/immobilien/d/haus-kaufen/burgenland/mattersburg/ehemaliges-gehoeft-mit-grossem-garten-scheune-und-nebengebaeuden-garagen-909314357/,willhaben.at,Gehöft,"EHEMALIGES GEHÖFT MIT GROSSEM GARTEN, SCHEUNE UND NEBENGEBÄUDEN/GARAGEN!",Loipersbach-Schattendorf Bhf.,62
Paradies nahe Alberner Hafen - Riesiges Grundstück mit Haus!,€ 949.000,170.0,,,7.0,"Wien, 11. Bezirk, Simmering",1110,48.167046,16.425028,https://www.willhaben.at/iad/immobilien/d/haus-kaufen/wien/wien-1110-simmering/paradies-nahe-alberner-hafen-riesiges-grundstueck-mit-haus-1025389760/,willhaben.at,Schloss,Paradies nahe Alberner Hafen - Riesiges Grundstück mit Haus!,Kledering Bahnhof,8
Rohdiamant mit Schlosscharakter beim Bisamberg,€ 1.980.000,210.0,,,6.0,Langenzersdorf,2103,48.30961,16.35747,https://www.willhaben.at/iad/immobilien/d/haus-kaufen/niederoesterreich/korneuburg/rohdiamant-mit-schlosscharakter-beim-bisamberg-1679734079/,willhaben.at,Schloss,Rohdiamant mit Schlosscharakter beim Bisamberg,Langenzersdorf Bahnhof,10
Innenstadthaus zum Wohnungspreis,€ 179.000,84.0,,80.0,3.0,Eisenstadt,7000,47.84509698,16.52111455,https://www.willhaben.at/iad/immobilien/d/haus-kaufen/burgenland/eisenstadt/innenstadthaus-zum-wohnungspreis-807385574/,willhaben.at,Schloss,Innenstadthaus zum Wohnungspreis,Eisenstadt Schule,67
Charmantes Einfamilienhaus nahe Schlosspark Pottendorf zu kaufen!,€ 430.000,90.0,,12.0,4.0,Pottendorf,2486,47.91659361,16.38605256,https://www.willhaben.at/iad/immobilien/d/haus-kaufen/niederoesterreich/baden/charmantes-einfamilienhaus-nahe-schlosspark-pottendorf-zu-kaufen-1047601666/,willhaben.at,Schloss,Charmantes Einfamilienhaus nahe Schlosspark Pottendorf zu kaufen!,Ebreichsdorf Bahnhof,29
Charmantes Haus mit großem Potenzial in begehrter Lage nahe Schloss Ebelsberg,€ 890.000,850.0,,,0.0,Linz,4030,48.24540242,14.32705379,https://www.willhaben.at/iad/immobilien/d/haus-kaufen/oberoesterreich/linz/charmantes-haus-mit-grossem-potenzial-in-begehrter-lage-nahe-schloss-ebelsberg-1135479497/,willhaben.at,Schloss,Charmantes Haus mit großem Potenzial in begehrter Lage nahe Schloss Ebelsberg,Linz/Donau Hauptbahnhof,75
Im Herzen der Esterházy-Stadt - Haus mit Pool auf weitläufigem Grundstück in begehrter Wohnlage,€ 595.000,,,,5.0,Eisenstadt,7000,47.84588,16.52731,https://www.willhaben.at/iad/immobilien/d/haus-kaufen/burgenland/eisenstadt/im-herzen-der-esterhazy-stadt-haus-mit-pool-auf-weitlaeufigem-grundstueck-in-begehrter-wohnlage-1758891702/,willhaben.at,Schloss,Im Herzen der Esterházy-Stadt - Haus mit Pool auf weitläufigem Grundstück in begehrter Wohnlage,Eisenstadt Schule,67
Ein- bis Zwei-Familienhaus in bester Lage in Puchenau zu verkaufen,€ 620.000,181.0,,,0.0,Puchenau,4048,48.31263,14.23402,https://www.willhaben.at/iad/immobilien/d/haus-kaufen/oberoesterreich/urfahr-umgebung/ein-bis-zwei-familienhaus-in-bester-lage-in-puchenau-zu-verkaufen-2078694289/,willhaben.at,Schloss,Ein- bis Zwei-Familienhaus in bester Lage in Puchenau zu verkaufen,Linz/Donau Hauptbahnhof,75
Traumhafte Villa mit Pool in exklusiver Lage von 1130 Wien,€ 1.690.000,165.0,,215.0,4.0,"Wien, 13. Bezirk, Hietzing",1130,48.16326245,16.26605843,https://www.willhaben.at/iad/immobilien/d/haus-kaufen/wien/wien-1130-hietzing/traumhafte-villa-mit-pool-in-exklusiver-lage-von-1130-wien-1330565423/,willhaben.at,Schloss,Traumhafte Villa mit Pool in exklusiver Lage von 1130 Wien,Perchtoldsdorf Bahnhof,37
Charmantes Einfamilienhaus mit Garten in Neunkirchen - Sanierungsprojekt mit Potenzial!,€ 220.000,82.0,,352.0,3.0,Neunkirchen,2620,47.73018123,16.06975487,https://www.willhaben.at/iad/immobilien/d/haus-kaufen/niederoesterreich/neunkirchen/charmantes-einfamilienhaus-mit-garten-in-neunkirchen-sanierungsprojekt-mit-potenzial-1303368761/,willhaben.at,Schloss,Charmantes Einfamilienhaus mit Garten in Neunkirchen - Sanierungsprojekt mit Potenzial!,Neunkirchen Bahnhof,43
FAMILIEN-WOHN-HIT * GARTENKÜCHE * 25 min von BRATISLAVA,€ 585.000,250.0,,351.0,6.0,Bruck an der Leitha,2460,48.02821626,16.77088052,https://www.willhaben.at/iad/immobilien/d/haus-kaufen/niederoesterreich/bruck-an-der-leitha/familien-wohn-hit-gartenkueche-25-min-von-bratislava-1750887195/,willhaben.at,Schloss,FAMILIEN-WOHN-HIT * GARTENKÜCHE * 25 min von BRATISLAVA,Bruck/Leitha Bahnhof,27
Immobilie zu verkaufen: 14. Bezirk,€ 849.000,130.0,,,0.0,"Wien, 14. Bezirk, Penzing",1140,48.201813,16.275673,https://www.willhaben.at/iad/immobilien/d/haus-kaufen/wien/wien-1140-penzing/immobilie-zu-verkaufen-14-bezirk-1703509934/,willhaben.at,Schloss,Immobilie zu verkaufen: 14. Bezirk,Purkersdorf Sanatorium Bhf.,16
"Erstbezug, Ziegelmassiv-Bauweise, 3-Schichtverglasung, Luftwärmepumpe, Stellplätze, S-Bahn 5 Minuten entfernt. - WOHNTRAUM","€ 520.000,89",152.0,,24.0,6.0,Achau,2481,48.0801135,16.3858034,https://www.willhaben.at/iad/immobilien/d/haus-kaufen/niederoesterreich/moedling/erstbezug-ziegelmassiv-bauweise-3-schichtverglasung-luftwaermepumpe-stellplaetze-s-bahn-5-minuten-entfernt-wohntraum-1043326687/,willhaben.at,Schloss,"Erstbezug, Ziegelmassiv-Bauweise, 3-Schichtverglasung, Luftwärmepumpe, Stellplätze, S-Bahn 5 Minuten entfernt. - WOHNTRAUM",Lanzendorf-Rannersdorf Bahnhof,10
"Erstbezug, Ziegelmassiv-Bauweise, 3-Schichtverglasung, Luftwärmepumpe, Stellplätze, S-Bahn 5 Minuten entfernt - JETZT ANFRAGEN","€ 515.000,62",113.0,,25.0,4.0,Achau,2481,48.0801135,16.3858034,https://www.willhaben.at/iad/immobilien/d/haus-kaufen/niederoesterreich/moedling/erstbezug-ziegelmassiv-bauweise-3-schichtverglasung-luftwaermepumpe-stellplaetze-s-bahn-5-minuten-entfernt-jetzt-anfragen-1891363021/,willhaben.at,Schloss,"Erstbezug, Ziegelmassiv-Bauweise, 3-Schichtverglasung, Luftwärmepumpe, Stellplätze, S-Bahn 5 Minuten entfernt - JETZT ANFRAGEN",Lanzendorf-Rannersdorf Bahnhof,10
"Erstbezug, Ziegelmassiv-Bauweise, 3-Schichtverglasung, Luftwärmepumpe, Stellplätze, S-Bahn 5 Minuten entfernt - JETZT ANFRAGEN","€ 469.000,45",124.0,,31.0,4.0,Achau,2481,48.0801135,16.3858034,https://www.willhaben.at/iad/immobilien/d/haus-kaufen/niederoesterreich/moedling/erstbezug-ziegelmassiv-bauweise-3-schichtverglasung-luftwaermepumpe-stellplaetze-s-bahn-5-minuten-entfernt-jetzt-anfragen-1059790760/,willhaben.at,Schloss,"Erstbezug, Ziegelmassiv-Bauweise, 3-Schichtverglasung, Luftwärmepumpe, Stellplätze, S-Bahn 5 Minuten entfernt - JETZT ANFRAGEN",Lanzendorf-Rannersdorf Bahnhof,10
"Erstbezug, Ziegelmassiv-Bauweise, 3-Schichtverglasung, Luftwärmepumpe, Stellplätze, S-Bahn 5 Minuten entfernt - JETZT ANFRAGEN","€ 524.000,73",159.0,,36.0,6.0,Achau,2481,48.0801135,16.3858034,https://www.willhaben.at/iad/immobilien/d/haus-kaufen/niederoesterreich/moedling/erstbezug-ziegelmassiv-bauweise-3-schichtverglasung-luftwaermepumpe-stellplaetze-s-bahn-5-minuten-entfernt-jetzt-anfragen-1945850974/,willhaben.at,Schloss,"Erstbezug, Ziegelmassiv-Bauweise, 3-Schichtverglasung, Luftwärmepumpe, Stellplätze, S-Bahn 5 Minuten entfernt - JETZT ANFRAGEN",Lanzendorf-Rannersdorf Bahnhof,10
"Erstbezug, Ziegelmassiv-Bauweise, 3-Schichtverglasung, Luftwärmepumpe, Stellplätze, S-Bahn 5 Minuten entfernt! - JETZT ZUSCHLAGEN",ab € 469.000,,,,0.0,Achau,2481,48.0801135,16.3858034,https://www.willhaben.at/iad/immobilien/d/neubauprojekt/niederoesterreich/moedling/erstbezug-ziegelmassiv-bauweise-3-schichtverglasung-luftwaermepumpe-stellplaetze-s-bahn-5-minuten-entfernt-jetzt-zuschlagen-2134782739/,willhaben.at,Schloss,"Erstbezug, Ziegelmassiv-Bauweise, 3-Schichtverglasung, Luftwärmepumpe, Stellplätze, S-Bahn 5 Minuten entfernt! - JETZT ZUSCHLAGEN",Lanzendorf-Rannersdorf Bahnhof,10
Charmantes Wohnen in einem idyllischen Haus,€ 1.090.000,127.0,,,5.0,"Wien, 13. Bezirk, Hietzing",1130,48.18165257,16.26414897,https://www.willhaben.at/iad/immobilien/d/haus-kaufen/wien/wien-1130-hietzing/charmantes-wohnen-in-einem-idyllischen-haus-1296254943/,willhaben.at,Schloss,Charmantes Wohnen in einem idyllischen Haus,Purkersdorf Sanatorium Bhf.,16
"Niedrigenergie Einfamilienhaus (Ziegelmassiv!) | PV-Anlage, LWP | 4 Zimmer | Keller, Eigengarten, Terrasse & Carport",€ 460.900,95.0,,152.0,4.0,Bruck an der Leitha,2460,48.0342135,16.7701035,https://www.willhaben.at/iad/immobilien/d/haus-kaufen/niederoesterreich/bruck-an-der-leitha/niedrigenergie-einfamilienhaus-ziegelmassiv-pv-anlage-lwp-4-zimmer-keller-eigengarten-terrasse-carport-1089572333/,willhaben.at,Schloss,"Niedrigenergie Einfamilienhaus (Ziegelmassiv!) | PV-Anlage, LWP | 4 Zimmer | Keller, Eigengarten, Terrasse & Carport",Bruck/Leitha Bahnhof,27
***PROVISIONSFREI! Grünruhelage bei Eisenstadt - MIT KELLER!,€ 529.000,114.0,,127.0,4.0,Großhöflein,7051,47.83689774,16.47074718,https://www.willhaben.at/iad/immobilien/d/haus-kaufen/burgenland/eisenstadt-umgebung/-provisionsfrei-gruenruhelage-bei-eisenstadt-mit-keller-1787294467/,willhaben.at,Schloss,***PROVISIONSFREI! Grünruhelage bei Eisenstadt - MIT KELLER!,Eisenstadt Schule,67
Beindruckender HAUSANTEIL - Altehrwürdiges Ambiente - in Tribuswinkel/ Baden bei Wien - eigene Terrasse & Grünfläche - Poolmitbenützung!,€ 930.000,355.0,,148.0,8.0,Tribuswinkel,2512,48.00417165,16.27285062,https://www.willhaben.at/iad/immobilien/d/haus-kaufen/niederoesterreich/baden/beindruckender-hausanteil-altehrwuerdiges-ambiente-in-tribuswinkel-baden-bei-wien-eigene-terrasse-gruenflaeche-poolmitbenuetzung-1270751157/,willhaben.at,Schloss,Beindruckender HAUSANTEIL - Altehrwürdiges Ambiente - in Tribuswinkel/ Baden bei Wien - eigene Terrasse & Grünfläche - Poolmitbenützung!,Baden Bahnhof,20
Optimale Kombination aus Stadt und Natur - inkl. PV-Anlage und 2 KFZ Abstellplätze! PROVISIONSFREI!,€ 540.600,112.0,,129.0,4.0,St. Pölten,3100,48.2278715,15.6336573,https://www.willhaben.at/iad/immobilien/d/haus-kaufen/niederoesterreich/sankt-poelten/optimale-kombination-aus-stadt-und-natur-inkl-pv-anlage-und-2-kfz-abstellplaetze-provisionsfrei-1584497252/,willhaben.at,Schloss,Optimale Kombination aus Stadt und Natur - inkl. PV-Anlage und 2 KFZ Abstellplätze! PROVISIONSFREI!,St. Pölten Hauptbahnhof,26
Traumhaftes Eigenheim im St. Pöltner Erholungsgebiet: Stadt trifft Natur - Erstbezug in wundervoller Lage!,€ 499.000,112.0,,50.0,4.0,St. Pölten,3107,48.2283699,15.63401146,https://www.willhaben.at/iad/immobilien/d/haus-kaufen/niederoesterreich/sankt-poelten/traumhaftes-eigenheim-im-st-poeltner-erholungsgebiet-stadt-trifft-natur-erstbezug-in-wundervoller-lage-1962308124/,willhaben.at,Schloss,Traumhaftes Eigenheim im St. Pöltner Erholungsgebiet: Stadt trifft Natur - Erstbezug in wundervoller Lage!,St. Pölten Hauptbahnhof,26
Ihr neues Zuhause im St. Pöltner Erholungsgebiet: Erstbezug in traumhafter Lage! PROVISIONSFREI,€ 533.000,112.0,,137.0,4.0,St. Pölten,3107,48.2283699,15.63401146,https://www.willhaben.at/iad/immobilien/d/haus-kaufen/niederoesterreich/sankt-poelten/ihr-neues-zuhause-im-st-poeltner-erholungsgebiet-erstbezug-in-traumhafter-lage-provisionsfrei-1136186529/,willhaben.at,Schloss,Ihr neues Zuhause im St. Pöltner Erholungsgebiet: Erstbezug in traumhafter Lage! PROVISIONSFREI,St. Pölten Hauptbahnhof,26
Großzügige Villa in Bad Fischau-Brunn mit 2.781m² großem Traumgrund und Fernblick,€ 1.190.000,245.0,,,8.0,Bad Fischau-Brunn,2721,47.83787778,16.16923642,https://www.willhaben.at/iad/immobilien/d/haus-kaufen/niederoesterreich/wiener-neustadt-land/grosszuegige-villa-in-bad-fischau-brunn-mit-2-781m-grossem-traumgrund-und-fernblick-1929747893/,willhaben.at,Schloss,Großzügige Villa in Bad Fischau-Brunn mit 2.781m² großem Traumgrund und Fernblick,Bad Fischau Bahnhof,64
Ein oder Mehrfamilienhaus in zentraler Lage von Marchegg!,€ 274.900,,,,7.0,Marchegg,2294,48.25344311,16.91204765,https://www.willhaben.at/iad/immobilien/d/haus-kaufen/niederoesterreich/gaenserndorf/ein-oder-mehrfamilienhaus-in-zentraler-lage-von-marchegg-1644731959/,willhaben.at,Schloss,Ein oder Mehrfamilienhaus in zentraler Lage von Marchegg!,Marchegg Bahnhof,33
REPRÄSENTATIVE VILLA MIT BLICK IN DEN SCHLOSSPARK,€ 2.900.000,527.0,,,12.0,Pottendorf,2486,47.911426,16.388108,https://www.willhaben.at/iad/immobilien/d/haus-kaufen/niederoesterreich/baden/repraesentative-villa-mit-blick-in-den-schlosspark-2007361151/,willhaben.at,Schloss,REPRÄSENTATIVE VILLA MIT BLICK IN DEN SCHLOSSPARK,Ebreichsdorf Bahnhof,29
Freistehendes Haus im Herzen von Bad Fischau!,€ 684.880,167.0,,294.0,6.0,Bad Fischau,2721,47.829994,16.162958,https://www.willhaben.at/iad/immobilien/d/haus-kaufen/niederoesterreich/wiener-neustadt-land/freistehendes-haus-im-herzen-von-bad-fischau-1761367956/,willhaben.at,Schloss,Freistehendes Haus im Herzen von Bad Fischau!,Bad Fischau Bahnhof,64
Charmantes 4-Zimmer Einfamilienhaus in Groß-Enzersdorf mit Terrasse und 2 Stellplätzen!,€ 599.000,136.0,,20.0,4.0,Groß-Enzersdorf,2301,48.19352631,16.57238085,https://www.willhaben.at/iad/immobilien/d/haus-kaufen/niederoesterreich/gaenserndorf/charmantes-4-zimmer-einfamilienhaus-in-gross-enzersdorf-mit-terrasse-und-2-stellplaetzen-1523651558/,willhaben.at,Schloss,Charmantes 4-Zimmer Einfamilienhaus in Groß-Enzersdorf mit Terrasse und 2 Stellplätzen!,Raasdorf Bahnhof,27
***PROVISIONSFREI! SOMMERSCHNÄPPCHEN - Einzugsbereit in 3 Monaten - MIT KELLER!,€ 499.000,114.0,,152.0,4.0,Großhöflein,7051,47.83689774,16.47074718,https://www.willhaben.at/iad/immobilien/d/haus-kaufen/burgenland/eisenstadt-umgebung/-provisionsfrei-sommerschnaeppchen-einzugsbereit-in-3-monaten-mit-keller-2069848981/,willhaben.at,Schloss,***PROVISIONSFREI! SOMMERSCHNÄPPCHEN - Einzugsbereit in 3 Monaten - MIT KELLER!,Eisenstadt Schule,67
***PROVISIONSFREI! Grünruhelage direkt neben Eisenstadt!,€ 499.000,114.0,,142.0,4.0,Großhöflein,7051,47.83689774,16.47074718,https://www.willhaben.at/iad/immobilien/d/haus-kaufen/burgenland/eisenstadt-umgebung/-provisionsfrei-gruenruhelage-direkt-neben-eisenstadt-1661477265/,willhaben.at,Schloss,***PROVISIONSFREI! Grünruhelage direkt neben Eisenstadt!,Eisenstadt Schule,67
"Rarität im Ortskern ""ANNO 1899""",€ 413.000,200.0,,158.0,6.0,Bad Fischau,2721,47.829994,16.162958,https://www.willhaben.at/iad/immobilien/d/haus-kaufen/niederoesterreich/wiener-neustadt-land/raritaet-im-ortskern-anno-1899-974623073/,willhaben.at,Schloss,"Rarität im Ortskern ""ANNO 1899""",Bad Fischau Bahnhof,64
Traumhaft elegantes 4-Zimmer-Einfamilienhaus in Trumau - Wo Stil auf Lebensqualität trifft,€ 484.000,121.0,,38.0,4.0,Trumau,2521,47.99406832,16.34959937,https://www.willhaben.at/iad/immobilien/d/haus-kaufen/niederoesterreich/baden/traumhaft-elegantes-4-zimmer-einfamilienhaus-in-trumau-wo-stil-auf-lebensqualitaet-trifft-1145310876/,willhaben.at,Schloss,Traumhaft elegantes 4-Zimmer-Einfamilienhaus in Trumau - Wo Stil auf Lebensqualität trifft,Münchendorf Bahnhof,23
Eigenheim im St. Pöltner Erholungsgebiet: Stadt trifft Natur - Erstbezug in traumhafter Lage. - WOHNTRAUM,ab € 499.000,,,,0.0,St. Pölten,3107,48.2283699,15.63401146,https://www.willhaben.at/iad/immobilien/d/neubauprojekt/niederoesterreich/sankt-poelten/eigenheim-im-st-poeltner-erholungsgebiet-stadt-trifft-natur-erstbezug-in-traumhafter-lage-wohntraum-1146510842/,willhaben.at,Schloss,Eigenheim im St. Pöltner Erholungsgebiet: Stadt trifft Natur - Erstbezug in traumhafter Lage. - WOHNTRAUM,St. Pölten Hauptbahnhof,26
Exklusives Einfamilienhaus: 5-Zimmer-Wohnoase mit hoher Lebensqualität in Trumau,€ 580.000,159.0,,73.0,5.0,Trumau,2521,47.99140394,16.34147569,https://www.willhaben.at/iad/immobilien/d/haus-kaufen/niederoesterreich/baden/exklusives-einfamilienhaus-5-zimmer-wohnoase-mit-hoher-lebensqualitaet-in-trumau-1387493615/,willhaben.at,Schloss,Exklusives Einfamilienhaus: 5-Zimmer-Wohnoase mit hoher Lebensqualität in Trumau,Münchendorf Bahnhof,23
"Historische, generalsanierte Villa auf außergewöhnlichem Parkgrundstück in Baden",€ 698.000,167.0,,46.0,4.0,Baden,2500,48.00214,16.23091,https://www.willhaben.at/iad/immobilien/d/haus-kaufen/niederoesterreich/baden/historische-generalsanierte-villa-auf-aussergewoehnlichem-parkgrundstueck-in-baden-819641943/,willhaben.at,Schloss,"Historische, generalsanierte Villa auf außergewöhnlichem Parkgrundstück in Baden",Baden Bahnhof,20
Preisreduktion! Gepflegtes großes Einfamilienhaus mit überdachtem Pool!,€ 480.000,224.0,,,6.0,Pottendorf,2486,47.911007,16.400938,https://www.willhaben.at/iad/immobilien/d/haus-kaufen/niederoesterreich/baden/preisreduktion-gepflegtes-grosses-einfamilienhaus-mit-ueberdachtem-pool-1202055422/,willhaben.at,Schloss,Preisreduktion! Gepflegtes großes Einfamilienhaus mit überdachtem Pool!,Ebreichsdorf Bahnhof,29
Luxusvilla bei Schlosspark Laxenburg,€ 1.675.000,206.0,,,4.0,Laxenburg,2361,48.071394,16.354995,https://www.willhaben.at/iad/immobilien/d/haus-kaufen/niederoesterreich/moedling/luxusvilla-bei-schlosspark-laxenburg-1281567367/,willhaben.at,Schloss,Luxusvilla bei Schlosspark Laxenburg,Maria Lanzendorf Bahnhof,14
"Großes Haus, traumhafter Ausblick, Gehnähe Schlosspark Esterhazy!",€ 727.000,160.0,,,5.0,Eisenstadt,7000,47.84588,16.52731,https://www.willhaben.at/iad/immobilien/d/haus-kaufen/burgenland/eisenstadt/grosses-haus-traumhafter-ausblick-gehnaehe-schlosspark-esterhazy-1752829261/,willhaben.at,Schloss,"Großes Haus, traumhafter Ausblick, Gehnähe Schlosspark Esterhazy!",Eisenstadt Schule,67
SCHLÜSSELFERTIGES HAUS! Erstbezug I Neubau I große Terrasse I mit S-Bahn ca. 15 min. HBF Wien I Luftwärmepumpe inkl. Kühlfunktion! I hochwertige Ausst,€ 515.000,133.0,,25.0,4.0,Achau,2481,48.07199111,16.37625915,https://www.willhaben.at/iad/immobilien/d/haus-kaufen/niederoesterreich/moedling/schluesselfertiges-haus-erstbezug-i-neubau-i-grosse-terrasse-i-mit-s-bahn-ca-15-min-hbf-wien-i-luftwaermepumpe-inkl-kuehlfunktion-i-hochwertige-ausstattung-959303593/,willhaben.at,Schloss,SCHLÜSSELFERTIGES HAUS! Erstbezug I Neubau I große Terrasse I mit S-Bahn ca. 15 min. HBF Wien I Luftwärmepumpe inkl. Kühlfunktion! I hochwertige Ausstattung,Himberg Bahnhof,13
Im wunderschönen Kottingbrunn: Sanierungsbedürftiges Haus auf 706 m² Grundstück,€ 249.000,,,515.0,2.0,Kottingbrunn,2542,47.96007015,16.22803562,https://www.willhaben.at/iad/immobilien/d/haus-kaufen/niederoesterreich/baden/im-wunderschoenen-kottingbrunn-sanierungsbeduerftiges-haus-auf-706-m-grundstueck-1044212364/,willhaben.at,Schloss,Im wunderschönen Kottingbrunn: Sanierungsbedürftiges Haus auf 706 m² Grundstück,Baden Bahnhof,20
ZWEI PRESSHÄUSER AUF BAUGRUND - KANN ZU WOHNHAUS AUS/UMGEBAUT WERDEN,€ 135.000,125.0,,,4.0,Göllersdorf,2013,48.49986,16.106903,https://www.willhaben.at/iad/immobilien/d/haus-kaufen/niederoesterreich/hollabrunn/zwei-presshaeuser-auf-baugrund-kann-zu-wohnhaus-aus-umgebaut-werden-1608035775/,willhaben.at,Schloss,ZWEI PRESSHÄUSER AUF BAUGRUND - KANN ZU WOHNHAUS AUS/UMGEBAUT WERDEN,Schönborn-Mallebarn,39
Charmante Doppelhaushälfte mit Garten und Terrasse in ruhiger Siedlungslage,€ 549.000,116.0,,124.0,3.0,Schwechat,2320,48.137436,16.474783,https://www.willhaben.at/iad/immobilien/d/haus-kaufen/niederoesterreich/bruck-an-der-leitha/charmante-doppelhaushaelfte-mit-garten-und-terrasse-in-ruhiger-siedlungslage-853707975/,willhaben.at,Schloss,Charmante Doppelhaushälfte mit Garten und Terrasse in ruhiger Siedlungslage,Kledering Bahnhof,8
Schlüsselfertig und belagsfertig! Erstbezug I Neubau I mit S-Bahn ca. 15 min. HBF Wien I Luftwärmepumpe inkl. Kühlfunktion!,€ 520.000,172.0,,24.0,6.0,Achau,2481,48.08062286,16.39452353,https://www.willhaben.at/iad/immobilien/d/haus-kaufen/niederoesterreich/moedling/schluesselfertig-und-belagsfertig-erstbezug-i-neubau-i-mit-s-bahn-ca-15-min-hbf-wien-i-luftwaermepumpe-inkl-kuehlfunktion-768186943/,willhaben.at,Schloss,Schlüsselfertig und belagsfertig! Erstbezug I Neubau I mit S-Bahn ca. 15 min. HBF Wien I Luftwärmepumpe inkl. Kühlfunktion!,Lanzendorf-Rannersdorf Bahnhof,10
Schlüsselfertig und belagsfertig! Erstbezug I Neubau I mit S-Bahn ca. 15 min. HBF Wien I Luftwärmepumpe inkl. Kühlfunktion!,€ 515.000,133.0,,25.0,4.0,Achau,2481,48.08062286,16.39452353,https://www.willhaben.at/iad/immobilien/d/haus-kaufen/niederoesterreich/moedling/schluesselfertig-und-belagsfertig-erstbezug-i-neubau-i-mit-s-bahn-ca-15-min-hbf-wien-i-luftwaermepumpe-inkl-kuehlfunktion-768186953/,willhaben.at,Schloss,Schlüsselfertig und belagsfertig! Erstbezug I Neubau I mit S-Bahn ca. 15 min. HBF Wien I Luftwärmepumpe inkl. Kühlfunktion!,Lanzendorf-Rannersdorf Bahnhof,10
Schlüsselfertig und belagsfertig! Erstbezug I Neubau I mit S-Bahn ca. 15 min. HBF Wien I Luftwärmepumpe inkl. Kühlfunktion!,€ 469.000,179.0,,31.0,4.0,Achau,2481,48.08062286,16.39452353,https://www.willhaben.at/iad/immobilien/d/haus-kaufen/niederoesterreich/moedling/schluesselfertig-und-belagsfertig-erstbezug-i-neubau-i-mit-s-bahn-ca-15-min-hbf-wien-i-luftwaermepumpe-inkl-kuehlfunktion-768186956/,willhaben.at,Schloss,Schlüsselfertig und belagsfertig! Erstbezug I Neubau I mit S-Bahn ca. 15 min. HBF Wien I Luftwärmepumpe inkl. Kühlfunktion!,Lanzendorf-Rannersdorf Bahnhof,10
"Einfamilienhaus in Ennsdorf, 748m², renovierungsbedürftig, 3 Garagen, Pool!!!",€ 325.000,120.0,,,6.0,Ennsdorf,4482,48.2089829,14.496168,https://www.willhaben.at/iad/immobilien/d/haus-kaufen/niederoesterreich/amstetten/einfamilienhaus-in-ennsdorf-748m-renovierungsbeduerftig-3-garagen-pool-1169569620/,willhaben.at,Schloss,"Einfamilienhaus in Ennsdorf, 748m², renovierungsbedürftig, 3 Garagen, Pool!!!",St. Valentin Bahnhof,74
"Einfamilienhaus in Ennsdorf, 748m², renovierungsbedürftig, 3 Garagen, Pool!!!",€ 325.000,120.0,,,6.0,Enns,4470,48.2089829,14.496168,https://www.willhaben.at/iad/immobilien/d/haus-kaufen/oberoesterreich/linz-land/einfamilienhaus-in-ennsdorf-748m-renovierungsbeduerftig-3-garagen-pool-1560320960/,willhaben.at,Schloss,"Einfamilienhaus in Ennsdorf, 748m², renovierungsbedürftig, 3 Garagen, Pool!!!",St. Valentin Bahnhof,74
Hochwertiges Einfamilienhaus am Rosenberg,€ 1.369.900,123.0,,20.0,4.0,"Wien, 23. Bezirk, Liesing",1230,48.1520412,16.27685284,https://www.willhaben.at/iad/immobilien/d/haus-kaufen/wien/wien-1230-liesing/hochwertiges-einfamilienhaus-am-rosenberg-1658747822/,willhaben.at,Schloss,Hochwertiges Einfamilienhaus am Rosenberg,Perchtoldsdorf Bahnhof,37
"Entzückendes Einfamilienhaus mit 4 Zimmern, kleinem Waldhang und gepflegtem Sonnengarten",€ 319.000,97.0,,,4.0,Potzneusiedl,2473,48.04746509,16.93978867,https://www.willhaben.at/iad/immobilien/d/haus-kaufen/burgenland/neusiedl-am-see/entzueckendes-einfamilienhaus-mit-4-zimmern-kleinem-waldhang-und-gepflegtem-sonnengarten-1730511297/,willhaben.at,Schloss,"Entzückendes Einfamilienhaus mit 4 Zimmern, kleinem Waldhang und gepflegtem Sonnengarten",Neudorf,40
Wohnen wie im Park - Moderner Familienbungalow im Schlosspark Seebenstein,€ 268.000,84.0,,60.0,4.0,Seebenstein,2824,47.70252407,16.15002471,https://www.willhaben.at/iad/immobilien/d/haus-kaufen/niederoesterreich/neunkirchen/wohnen-wie-im-park-moderner-familienbungalow-im-schlosspark-seebenstein-1997216641/,willhaben.at,Schloss,Wohnen wie im Park - Moderner Familienbungalow im Schlosspark Seebenstein,Pitten Bahnhof,53
Modernes Einfamilienhaus - Bezirk Baden nahe zu Wien,€ 790.000,170.0,,449.0,4.0,Oberwaltersdorf,2522,47.98536219,16.32380771,https://www.willhaben.at/iad/immobilien/d/haus-kaufen/niederoesterreich/baden/modernes-einfamilienhaus-bezirk-baden-nahe-zu-wien-1588723546/,willhaben.at,Schloss,Modernes Einfamilienhaus - Bezirk Baden nahe zu Wien,Traiskirchen Aspangbahn,33
"Edler Sofortbezug in Hobersdorf - Fischgrätparkett, PV, Wärmepumpe & Klimaanlage - EUR425.000",€ 425.000,122.0,,110.0,4.0,Hobersdorf,2193,48.58428947,16.63815751,https://www.willhaben.at/iad/immobilien/d/haus-kaufen/niederoesterreich/mistelbach/edler-sofortbezug-in-hobersdorf-fischgraetparkett-pv-waermepumpe-klimaanlage-eur425-000-1589775056/,willhaben.at,Schloss,"Edler Sofortbezug in Hobersdorf - Fischgrätparkett, PV, Wärmepumpe & Klimaanlage - EUR425.000",Mistelbach Bahnhof,49
"Einmalige Gelegenheit - Einfamilienhaus mit zusätzlicher Baufläche in Kottingbrunn, Schlossnähe",€ 629.000,242.0,,,7.0,Kottingbrunn,2542,47.95002586561291,16.225537419450124,https://www.willhaben.at/iad/immobilien/d/haus-kaufen/niederoesterreich/baden/einmalige-gelegenheit-einfamilienhaus-mit-zusaetzlicher-bauflaeche-in-kottingbrunn-schlossnaehe-2048666136/,willhaben.at,Schloss,"Einmalige Gelegenheit - Einfamilienhaus mit zusätzlicher Baufläche in Kottingbrunn, Schlossnähe",Bad Vöslau Bahnhof,43
GEPFLEGTES EINFAMILIENHAUS MIT GARAGE UND SCHÖNEM GARTEN,€ 339.000,143.0,,,6.0,Göllersdorf,2013,48.49986,16.106903,https://www.willhaben.at/iad/immobilien/d/haus-kaufen/niederoesterreich/hollabrunn/gepflegtes-einfamilienhaus-mit-garage-und-schoenem-garten-1300677350/,willhaben.at,Schloss,GEPFLEGTES EINFAMILIENHAUS MIT GARAGE UND SCHÖNEM GARTEN,Schönborn-Mallebarn,39
Einzigartiges Wohnbauprojekt im Herzen von Bad Fischau!,€ 518.900,135.0,,126.0,4.0,Bad Fischau,2721,47.829994,16.162958,https://www.willhaben.at/iad/immobilien/d/haus-kaufen/niederoesterreich/wiener-neustadt-land/einzigartiges-wohnbauprojekt-im-herzen-von-bad-fischau-1961008004/,willhaben.at,Schloss,Einzigartiges Wohnbauprojekt im Herzen von Bad Fischau!,Bad Fischau Bahnhof,64
Ihr neues Zuhause im Herzen von Bad Fischau!,€ 547.977,135.0,,194.0,4.0,Bad Fischau,2721,47.829994,16.162958,https://www.willhaben.at/iad/immobilien/d/haus-kaufen/niederoesterreich/wiener-neustadt-land/ihr-neues-zuhause-im-herzen-von-bad-fischau-2000908810/,willhaben.at,Schloss,Ihr neues Zuhause im Herzen von Bad Fischau!,Bad Fischau Bahnhof,64
Einzigartiges Wohnbauprojekt im Herzen von Bad Fischau!,€ 649.938,167.0,,271.0,6.0,Bad Fischau,2721,47.829994,16.162958,https://www.willhaben.at/iad/immobilien/d/haus-kaufen/niederoesterreich/wiener-neustadt-land/einzigartiges-wohnbauprojekt-im-herzen-von-bad-fischau-927030853/,willhaben.at,Schloss,Einzigartiges Wohnbauprojekt im Herzen von Bad Fischau!,Bad Fischau Bahnhof,64
Einzigartiges Wohnbauprojekt im Herzen von Bad Fischau!,€ 533.100,135.0,,162.0,4.0,Bad Fischau,2721,47.829994,16.162958,https://www.willhaben.at/iad/immobilien/d/haus-kaufen/niederoesterreich/wiener-neustadt-land/einzigartiges-wohnbauprojekt-im-herzen-von-bad-fischau-1486260266/,willhaben.at,Schloss,Einzigartiges Wohnbauprojekt im Herzen von Bad Fischau!,Bad Fischau Bahnhof,64
"Das Projekt ""WALPURGA | "" Idylle am Wienerwald""",ab € 270.000,,,,0.0,Purkersdorf,3002,48.21095,16.17347,https://www.willhaben.at/iad/immobilien/d/neubauprojekt/niederoesterreich/sankt-poelten-land/das-projekt-walpurga-idylle-am-wienerwald-877560855/,willhaben.at,Schloss,"Das Projekt ""WALPURGA | "" Idylle am Wienerwald""",Purkersdorf Zentrum Bahnhof,13
Einzigartiges Wohnbauprojekt im Herzen von Bad Fischau!,€ 521.700,135.0,,167.0,4.0,Bad Fischau,2721,47.829994,16.162958,https://www.willhaben.at/iad/immobilien/d/haus-kaufen/niederoesterreich/wiener-neustadt-land/einzigartiges-wohnbauprojekt-im-herzen-von-bad-fischau-1157392820/,willhaben.at,Schloss,Einzigartiges Wohnbauprojekt im Herzen von Bad Fischau!,Bad Fischau Bahnhof,64
Pitten EFH Schlossnähe zu einem tollen Preis-1241,€ 299.000,120.0,,30.0,4.0,Pitten,2823,47.71375258,16.19312376,https://www.willhaben.at/iad/immobilien/d/haus-kaufen/niederoesterreich/neunkirchen/pitten-efh-schlossnaehe-zu-einem-tollen-preis-1241-1937953949/,willhaben.at,Schloss,Pitten EFH Schlossnähe zu einem tollen Preis-1241,Pitten Bahnhof,53
Abendsonne im eigenen Garten genießen - provisionsfreies Reihenhaus - westseitiger Garten!,€ 540.600,112.0,,129.0,4.0,St. Pölten,3107,48.2283699,15.63401146,https://www.willhaben.at/iad/immobilien/d/haus-kaufen/niederoesterreich/sankt-poelten/abendsonne-im-eigenen-garten-geniessen-provisionsfreies-reihenhaus-westseitiger-garten-1323388729/,willhaben.at,Schloss,Abendsonne im eigenen Garten genießen - provisionsfreies Reihenhaus - westseitiger Garten!,St. Pölten Hauptbahnhof,26
Hohe Lebensqualität dank optimaler Kombination aus Stadt- und Landleben! Provisionsfrei!,€ 510.300,112.0,,78.0,4.0,St. Pölten,3107,48.2283699,15.63401146,https://www.willhaben.at/iad/immobilien/d/haus-kaufen/niederoesterreich/sankt-poelten/hohe-lebensqualitaet-dank-optimaler-kombination-aus-stadt-und-landleben-provisionsfrei-1683849964/,willhaben.at,Schloss,Hohe Lebensqualität dank optimaler Kombination aus Stadt- und Landleben! Provisionsfrei!,St. Pölten Hauptbahnhof,26
Schlüsselfertig und belagsfertig! Erstbezug I Neubau I mit S-Bahn ca. 15 min. HBF Wien I Luftwärmepumpe inkl. Kühlfunktion!,ab € 469.000,,,,0.0,Achau,2481,48.08062286,16.39452353,https://www.willhaben.at/iad/immobilien/d/neubauprojekt/niederoesterreich/moedling/schluesselfertig-und-belagsfertig-erstbezug-i-neubau-i-mit-s-bahn-ca-15-min-hbf-wien-i-luftwaermepumpe-inkl-kuehlfunktion-598926213/,willhaben.at,Schloss,Schlüsselfertig und belagsfertig! Erstbezug I Neubau I mit S-Bahn ca. 15 min. HBF Wien I Luftwärmepumpe inkl. Kühlfunktion!,Lanzendorf-Rannersdorf Bahnhof,10
NEUER PREIS - Terrassenhaus mit Erdwärmeheizung und Einliegerwohnung - Möllersdorf,€ 629.000,220.0,,50.0,7.0,Möllersdorf,2514,48.02388381,16.303859,https://www.willhaben.at/iad/immobilien/d/haus-kaufen/niederoesterreich/baden/neuer-preis-terrassenhaus-mit-erdwaermeheizung-und-einliegerwohnung-moellersdorf-2034518438/,willhaben.at,Schloss,NEUER PREIS - Terrassenhaus mit Erdwärmeheizung und Einliegerwohnung - Möllersdorf,Baden Bahnhof,20
Einzigartiges Wohnbauprojekt im Herzen von Bad Fischau!,€ 635.600,167.0,,150.0,6.0,Bad Fischau,2721,47.829994,16.162958,https://www.willhaben.at/iad/immobilien/d/haus-kaufen/niederoesterreich/wiener-neustadt-land/einzigartiges-wohnbauprojekt-im-herzen-von-bad-fischau-1798950047/,willhaben.at,Schloss,Einzigartiges Wohnbauprojekt im Herzen von Bad Fischau!,Bad Fischau Bahnhof,64
"Exklusives Grundstück mit Altbestand in Bestlage am Wolfersberg - Sonnig, ruhig, voller Möglichkeiten",€ 750.000,74.0,,,3.0,"Wien, 14. Bezirk, Penzing",1140,48.21444172,16.22362351,https://www.willhaben.at/iad/immobilien/d/haus-kaufen/wien/wien-1140-penzing/exklusives-grundstueck-mit-altbestand-in-bestlage-am-wolfersberg-sonnig-ruhig-voller-moeglichkeiten-915924105/,willhaben.at,Schloss,"Exklusives Grundstück mit Altbestand in Bestlage am Wolfersberg - Sonnig, ruhig, voller Möglichkeiten",Purkersdorf Zentrum Bahnhof,13
DREAM HOME! Exklusive Architektendesignhäuser PROVISIONSFREI direkt vom Eigentümer,€ 649.800,115.0,,,5.0,Velm,2325,48.080948,16.444618,https://www.willhaben.at/iad/immobilien/d/haus-kaufen/niederoesterreich/bruck-an-der-leitha/dream-home-exklusive-architektendesignhaeuser-provisionsfrei-direkt-vom-eigentuemer-1658342700/,willhaben.at,Schloss,DREAM HOME! Exklusive Architektendesignhäuser PROVISIONSFREI direkt vom Eigentümer,Lanzendorf-Rannersdorf Bahnhof,10
"ERSTBEZUG! Villa mit Garten, Pool, Dachterrasse und Seezugang!",€ 1.790.000,366.0,,86.0,7.0,Ebreichsdorf,2483,47.96961892,16.38185517,https://www.willhaben.at/iad/immobilien/d/haus-kaufen/niederoesterreich/baden/erstbezug-villa-mit-garten-pool-dachterrasse-und-seezugang-1984536454/,willhaben.at,Schloss,"ERSTBEZUG! Villa mit Garten, Pool, Dachterrasse und Seezugang!",Ebreichsdorf Bahnhof,29
"Eine Adresse für Menschen, die angekommen sind | Bezugsfertige Villa mit Pool und viel Privatsphäre oberhalb des Thermalorts Bad Fischau",€ 1.500.000,310.0,,840.0,7.0,Bad Fischau,2721,47.8384945,16.1679487,https://www.willhaben.at/iad/immobilien/d/haus-kaufen/niederoesterreich/wiener-neustadt-land/eine-adresse-fuer-menschen-die-angekommen-sind-bezugsfertige-villa-mit-pool-und-viel-privatsphaere-oberhalb-des-thermalorts-bad-fischau-1298380617/,willhaben.at,Schloss,"Eine Adresse für Menschen, die angekommen sind | Bezugsfertige Villa mit Pool und viel Privatsphäre oberhalb des Thermalorts Bad Fischau",Bad Fischau Bahnhof,64
"Haus im Landhausstil - sanierungsbedürftige Rarität im Schlosser Gässchen, direkt in der Fußgängerzone",€ 400.000,180.0,,,5.0,Baden,2500,48.00641503,16.22931649,https://www.willhaben.at/iad/immobilien/d/haus-kaufen/niederoesterreich/baden/haus-im-landhausstil-sanierungsbeduerftige-raritaet-im-schlosser-gaesschen-direkt-in-der-fussgaengerzone-997222787/,willhaben.at,Schloss,"Haus im Landhausstil - sanierungsbedürftige Rarität im Schlosser Gässchen, direkt in der Fußgängerzone",Baden Bahnhof,20
Grünblick. Lage. Potential. - Haus in begehrter Wohngehend am Wiener Stadtrand!,€ 890.000,281.0,,102.0,6.0,"Wien, 14. Bezirk, Penzing",1140,48.20630013,16.21274588,https://www.willhaben.at/iad/immobilien/d/haus-kaufen/wien/wien-1140-penzing/gruenblick-lage-potential-haus-in-begehrter-wohngehend-am-wiener-stadtrand-1763408175/,willhaben.at,Schloss,Grünblick. Lage. Potential. - Haus in begehrter Wohngehend am Wiener Stadtrand!,Purkersdorf Zentrum Bahnhof,13
"Familien-REFUGIUM, 1140-COTTAGE, gepflegte GRÜN-RUHE-Lage, Schloss Laudon Nähe",€ 715.000,115.0,,7.0,5.0,"Wien, 14. Bezirk, Penzing",1140,48.201813,16.275673,https://www.willhaben.at/iad/immobilien/d/haus-kaufen/wien/wien-1140-penzing/familien-refugium-1140-cottage-gepflegte-gruen-ruhe-lage-schloss-laudon-naehe-1982835535/,willhaben.at,Schloss,"Familien-REFUGIUM, 1140-COTTAGE, gepflegte GRÜN-RUHE-Lage, Schloss Laudon Nähe",Purkersdorf Sanatorium Bhf.,16
Bungalow in exklusiver Lage in Eisenstadt!!,€ 949.000,129.0,,1169.0,4.0,Eisenstadt,7000,47.85904592,16.52900515,https://www.willhaben.at/iad/immobilien/d/haus-kaufen/burgenland/eisenstadt/bungalow-in-exklusiver-lage-in-eisenstadt-1531294599/,willhaben.at,Schloss,Bungalow in exklusiver Lage in Eisenstadt!!,Eisenstadt Schule,67
"INFRASTRUKTUR & RUHE - Haus in perfekter Familienlage, Bezirksgrenze 1120 / 1230",€ 599.000,135.0,,358.0,5.0,"Wien, 12. Bezirk, Meidling",1120,48.15909214,16.31591455,https://www.willhaben.at/iad/immobilien/d/haus-kaufen/wien/wien-1120-meidling/infrastruktur-ruhe-haus-in-perfekter-familienlage-bezirksgrenze-1120-1230-1619973373/,willhaben.at,Schloss,"INFRASTRUKTUR & RUHE - Haus in perfekter Familienlage, Bezirksgrenze 1120 / 1230",Hennersdorf Bahnhof,15
Wundervolles Reihenhaus in toller Lage mit vielen tollen Extras - Stadt trifft Natur - Provisionsfrei!,€ 502.800,112.0,,56.0,4.0,St. Pölten,3100,48.2278715,15.6336573,https://www.willhaben.at/iad/immobilien/d/haus-kaufen/niederoesterreich/sankt-poelten/wundervolles-reihenhaus-in-toller-lage-mit-vielen-tollen-extras-stadt-trifft-natur-provisionsfrei-1650745512/,willhaben.at,Schloss,Wundervolles Reihenhaus in toller Lage mit vielen tollen Extras - Stadt trifft Natur - Provisionsfrei!,St. Pölten Hauptbahnhof,26
"Charmantes Reihenhaus in 1140 Wien - 5 Zimmer, Garten und Terrasse erwarten Sie!",€ 498.000,108.0,,136.0,5.0,"Wien, 14. Bezirk, Penzing",1140,48.2177028,16.21313875,https://www.willhaben.at/iad/immobilien/d/haus-kaufen/wien/wien-1140-penzing/charmantes-reihenhaus-in-1140-wien-5-zimmer-garten-und-terrasse-erwarten-sie-1057326314/,willhaben.at,Schloss,"Charmantes Reihenhaus in 1140 Wien - 5 Zimmer, Garten und Terrasse erwarten Sie!",Purkersdorf Zentrum Bahnhof,13
BAUGRUND MIT ALTBESTAND,€ 1.300.000,265.0,,,7.0,"Wien, 13. Bezirk, Hietzing",1130,48.17005083,16.27740353,https://www.willhaben.at/iad/immobilien/d/haus-kaufen/wien/wien-1130-hietzing/baugrund-mit-altbestand-1428170188/,willhaben.at,Schloss,BAUGRUND MIT ALTBESTAND,Perchtoldsdorf Bahnhof,37
DOPPELHAUSHÄLFTE AM STADTRAND! Rohbau zum selbst Fertigstellen!,€ 389.000,127.0,,72.0,4.0,Vösendorf,2331,48.12064102,16.34597573,https://www.willhaben.at/iad/immobilien/d/haus-kaufen/niederoesterreich/moedling/doppelhaushaelfte-am-stadtrand-rohbau-zum-selbst-fertigstellen-1705064308/,willhaben.at,Schloss,DOPPELHAUSHÄLFTE AM STADTRAND! Rohbau zum selbst Fertigstellen!,Maria Lanzendorf Bahnhof,14
Eckreihenhaus mit tollen Außenflächen - Stadt trifft Natur - Eigengarten mit Terrasse + 2 Balkone!,€ 529.200,112.0,,129.0,4.0,St. Pölten,3107,48.2283699,15.63401146,https://www.willhaben.at/iad/immobilien/d/haus-kaufen/niederoesterreich/sankt-poelten/eckreihenhaus-mit-tollen-aussenflaechen-stadt-trifft-natur-eigengarten-mit-terrasse-2-balkone-1611019385/,willhaben.at,Schloss,Eckreihenhaus mit tollen Außenflächen - Stadt trifft Natur - Eigengarten mit Terrasse + 2 Balkone!,St. Pölten Hauptbahnhof,26
Altbauvilla in Hietzing - direkt beim Hietzinger Bad,€ 850.000,182.0,,,6.0,"Wien, 13. Bezirk, Hietzing",1130,48.175354,16.28262,https://www.willhaben.at/iad/immobilien/d/haus-kaufen/wien/wien-1130-hietzing/altbauvilla-in-hietzing-direkt-beim-hietzinger-bad-2064849738/,willhaben.at,Schloss,Altbauvilla in Hietzing - direkt beim Hietzinger Bad,Perchtoldsdorf Bahnhof,37
Grundstück mit zwei Einfamilienhäusern in ruhiger Lage,€ 649.000,238.0,,,4.0,Bruck an der Leitha,2460,48.03743847,16.77494126,https://www.willhaben.at/iad/immobilien/d/haus-kaufen/niederoesterreich/bruck-an-der-leitha/grundstueck-mit-zwei-einfamilienhaeusern-in-ruhiger-lage-1905616951/,willhaben.at,Schloss,Grundstück mit zwei Einfamilienhäusern in ruhiger Lage,Bruck/Leitha Bahnhof,27
Exklusive Doppelhaushälfte/ absolute Ruhelage/ Sackgasse an der Piesting,€ 480.000,129.0,,160.0,5.0,Ebreichsdorf,2483,47.96785375,16.407544,https://www.willhaben.at/iad/immobilien/d/haus-kaufen/niederoesterreich/baden/exklusive-doppelhaushaelfte-absolute-ruhelage-sackgasse-an-der-piesting-1873817305/,willhaben.at,Schloss,Exklusive Doppelhaushälfte/ absolute Ruhelage/ Sackgasse an der Piesting,Ebreichsdorf Bahnhof,29
KÄUFERPROVISIONSFREI - Wolkersdorf - TOP Reihenhaus 5 mit herrlichem Garten - klimaaktiv GOLD-Haus,€ 599.000,126.0,,176.0,5.0,Wolkersdorf im Weinviertel,2120,48.39374906,16.53070463,https://www.willhaben.at/iad/immobilien/d/haus-kaufen/niederoesterreich/mistelbach/kaeuferprovisionsfrei-wolkersdorf-top-reihenhaus-5-mit-herrlichem-garten-klimaaktiv-gold-haus-832263530/,willhaben.at,Schloss,KÄUFERPROVISIONSFREI - Wolkersdorf - TOP Reihenhaus 5 mit herrlichem Garten - klimaaktiv GOLD-Haus,Obersdorf Bahnhof,23
Doppelhaus-Villa in bester Nachbarschaft mit höchster Wohnqualität am traumhaften Aqualina Privatbadesee | belagsfertig,€ 575.000,135.0,,130.0,4.0,Ebreichsdorf,2483,47.9751938,16.3941583,https://www.willhaben.at/iad/immobilien/d/haus-kaufen/niederoesterreich/baden/doppelhaus-villa-in-bester-nachbarschaft-mit-hoechster-wohnqualitaet-am-traumhaften-aqualina-privatbadesee-belagsfertig-731796661/,willhaben.at,Schloss,Doppelhaus-Villa in bester Nachbarschaft mit höchster Wohnqualität am traumhaften Aqualina Privatbadesee | belagsfertig,Münchendorf Bahnhof,23
"NEUER PREIS! Imposantes Wohnobjekt mit insgesamt ca. 640m², großer Panoramaterrasse und Garagen",€ 450.000,250.0,,250.0,12.0,Hernstein,2560,47.898422,16.11049,https://www.willhaben.at/iad/immobilien/d/haus-kaufen/niederoesterreich/baden/neuer-preis-imposantes-wohnobjekt-mit-insgesamt-ca-640m-grosser-panoramaterrasse-und-garagen-1860205947/,willhaben.at,Schloss,"NEUER PREIS! Imposantes Wohnobjekt mit insgesamt ca. 640m², großer Panoramaterrasse und Garagen",Piesting Harzwerk,76
Traum - Villa mit Zweithaus und Baugrund in Leopoldsdorf im Marchfeld/Nähe Wien,€ 1.190.000,206.0,,75.0,5.0,Leopoldsdorf im Marchfelde,2285,48.221386,16.694761,https://www.willhaben.at/iad/immobilien/d/haus-kaufen/niederoesterreich/gaenserndorf/traum-villa-mit-zweithaus-und-baugrund-in-leopoldsdorf-im-marchfeld-naehe-wien-848676133/,willhaben.at,Schloss,Traum - Villa mit Zweithaus und Baugrund in Leopoldsdorf im Marchfeld/Nähe Wien,Siebenbrunn-Leopoldsdorf Bahnhof,23
Klein...aber Mein! Teilsaniertes Haus im Zentrum von Schattendorf,€ 85.000,44.0,,30.0,2.0,Schattendorf,7022,47.71205611,16.5109862,https://www.willhaben.at/iad/immobilien/d/haus-kaufen/burgenland/mattersburg/klein-aber-mein-teilsaniertes-haus-im-zentrum-von-schattendorf-1692757472/,willhaben.at,Schloss,Klein...aber Mein! Teilsaniertes Haus im Zentrum von Schattendorf,Loipersbach-Schattendorf Bhf.,62
Modernes Familienrefugium- stilvolles Wohnen mit Gartenidylle,€ 649.000,140.0,,,4.0,Trausdorf an der Wulka,7061,47.81440722,16.54623848,https://www.willhaben.at/iad/immobilien/d/haus-kaufen/burgenland/eisenstadt-umgebung/modernes-familienrefugium-stilvolles-wohnen-mit-gartenidylle-1848689583/,willhaben.at,Schloss,Modernes Familienrefugium- stilvolles Wohnen mit Gartenidylle,Eisenstadt Schule,67
Bungalow mit 4 Zimmer und Idyllischen Garten am Esterhazysee,€ 149.000,88.0,,20.0,4.0,Trausdorf an der Wulka,7061,47.81630518,16.58946603,https://www.willhaben.at/iad/immobilien/d/haus-kaufen/burgenland/eisenstadt-umgebung/bungalow-mit-4-zimmer-und-idyllischen-garten-am-esterhazysee-1648463812/,willhaben.at,Schloss,Bungalow mit 4 Zimmer und Idyllischen Garten am Esterhazysee,Schützen am Gebirge Haltestelle,61
2.540 m² + 6-Zimmer-Haus + Weinkeller in Kronberg mit Aussicht,€ 339.000,171.0,,,6.0,Kronberg,2123,48.424736,16.480574,https://www.willhaben.at/iad/immobilien/d/haus-kaufen/niederoesterreich/mistelbach/2-540-m-6-zimmer-haus-weinkeller-in-kronberg-mit-aussicht-1216085495/,willhaben.at,Schloss,2.540 m² + 6-Zimmer-Haus + Weinkeller in Kronberg mit Aussicht,Wolkersdorf Bahnhof,26
Exklusive Twin-Villen mit hochwertiger Ausstattung und Weitblick ins Grüne,€ 782.000,119.0,,39.0,4.0,Schwechat,2320,48.1342932,16.4796647,https://www.willhaben.at/iad/immobilien/d/haus-kaufen/niederoesterreich/bruck-an-der-leitha/exklusive-twin-villen-mit-hochwertiger-ausstattung-und-weitblick-ins-gruene-2125168683/,willhaben.at,Reiterhof,Exklusive Twin-Villen mit hochwertiger Ausstattung und Weitblick ins Grüne,Kledering Bahnhof,8
Moderne Twin-Villen mit Luxus-Ausstattung und Panoramablick über den Felmeyergarten. Grünruhelage mit sehr guter Infrastruktur,€ 1.186.000,183.0,,116.0,5.0,Schwechat,2320,48.1342932,16.4796647,https://www.willhaben.at/iad/immobilien/d/haus-kaufen/niederoesterreich/bruck-an-der-leitha/moderne-twin-villen-mit-luxus-ausstattung-und-panoramablick-ueber-den-felmeyergarten-gruenruhelage-mit-sehr-guter-infrastruktur-934714333/,willhaben.at,Reiterhof,Moderne Twin-Villen mit Luxus-Ausstattung und Panoramablick über den Felmeyergarten. Grünruhelage mit sehr guter Infrastruktur,Kledering Bahnhof,8
LUXUSVILLA IN GRÜNER BESTLAGE AM SONNENHANG,€ 1.850.000,372.0,,,9.0,Gießhübl,2372,48.09754272,16.24844712,https://www.willhaben.at/iad/immobilien/d/haus-kaufen/niederoesterreich/moedling/luxusvilla-in-gruener-bestlage-am-sonnenhang-1962294643/,willhaben.at,Weingut,LUXUSVILLA IN GRÜNER BESTLAGE AM SONNENHANG,Mödling Bahnhof,21
Bungalow mit zeitlosem Charme und sonnigem Garten,€ 570.000,127.0,,47.0,3.0,Gramatneusiedl,2440,48.01697819,16.4805878,https://www.willhaben.at/iad/immobilien/d/haus-kaufen/niederoesterreich/bruck-an-der-leitha/bungalow-mit-zeitlosem-charme-und-sonnigem-garten-1458887764/,willhaben.at,Weingut,Bungalow mit zeitlosem Charme und sonnigem Garten,Gramatneusiedl Bahnhof,15
Wohnen mit Urlaubsflair - direkt am See und ganzjährig genießbar,€ 639.000,107.0,,75.0,5.0,Neusiedl am See,7100,47.9363509,16.841463,https://www.willhaben.at/iad/immobilien/d/haus-kaufen/burgenland/neusiedl-am-see/wohnen-mit-urlaubsflair-direkt-am-see-und-ganzjaehrig-geniessbar-2079454677/,willhaben.at,Weingut,Wohnen mit Urlaubsflair - direkt am See und ganzjährig genießbar,Parndorf Ort Bahnhof,33
FAMILIENHIT - 4 Zimmer - ca. 188m² WFL - Balkon - Garage - Garten - ca. 413m² GFL,€ 299.000,188.0,,8.0,4.0,Stranzendorf,3702,48.43854834,16.07666347,https://www.willhaben.at/iad/immobilien/d/haus-kaufen/niederoesterreich/korneuburg/familienhit-4-zimmer-ca-188m-wfl-balkon-garage-garten-ca-413m-gfl-1791050539/,willhaben.at,Weingut,FAMILIENHIT - 4 Zimmer - ca. 188m² WFL - Balkon - Garage - Garten - ca. 413m² GFL,Hausleiten Bahnhof,38
Dein Wohnglück im Grünen! Familienwohnhaus mit ca 5 km zum See!,€ 458.000,125.0,,2153.0,5.0,Oslip,7064,47.835716,16.613424,https://www.willhaben.at/iad/immobilien/d/haus-kaufen/burgenland/eisenstadt-umgebung/dein-wohnglueck-im-gruenen-familienwohnhaus-mit-ca-5-km-zum-see-1753470973/,willhaben.at,Weingut,Dein Wohnglück im Grünen! Familienwohnhaus mit ca 5 km zum See!,Schützen am Gebirge Haltestelle,61
Ihr neues Zuhause - Wohnen mit Aussicht in Enzersfeld im Weinviertel,ab € 599.000,,,,0.0,Enzersfeld,2202,48.3590959,16.43430526,https://www.willhaben.at/iad/immobilien/d/neubauprojekt/niederoesterreich/korneuburg/ihr-neues-zuhause-wohnen-mit-aussicht-in-enzersfeld-im-weinviertel-1675805779/,willhaben.at,Weingut,Ihr neues Zuhause - Wohnen mit Aussicht in Enzersfeld im Weinviertel,Obersdorf Bahnhof,23
Wohnen mit Urlaubsflair - direkt am See und ganzjährig genießbar,€ 629.000,107.0,,66.0,4.0,Parndorf,7111,47.9747695,16.840374,https://www.willhaben.at/iad/immobilien/d/haus-kaufen/burgenland/neusiedl-am-see/wohnen-mit-urlaubsflair-direkt-am-see-und-ganzjaehrig-geniessbar-1118162253/,willhaben.at,Weingut,Wohnen mit Urlaubsflair - direkt am See und ganzjährig genießbar,Parndorf Ort Bahnhof,33
Wohnen mit Urlaubsflair - direkt am See und ganzjährig genießbar,€ 629.000,107.0,,66.0,4.0,Neusiedl am See,7100,47.9363509,16.841463,https://www.willhaben.at/iad/immobilien/d/haus-kaufen/burgenland/neusiedl-am-see/wohnen-mit-urlaubsflair-direkt-am-see-und-ganzjaehrig-geniessbar-1395810980/,willhaben.at,Weingut,Wohnen mit Urlaubsflair - direkt am See und ganzjährig genießbar,Parndorf Ort Bahnhof,33
Ganzes Jahr Urlaubsfeeling - Wohnen am See,€ 629.000,107.0,,23.0,3.0,Parndorf,7111,47.9747695,16.840374,https://www.willhaben.at/iad/immobilien/d/haus-kaufen/burgenland/neusiedl-am-see/ganzes-jahr-urlaubsfeeling-wohnen-am-see-1719068392/,willhaben.at,Weingut,Ganzes Jahr Urlaubsfeeling - Wohnen am See,Parndorf Ort Bahnhof,33
"Leben, wo andere Urlaub machen - Ihr neues Zuhause am See",€ 669.000,108.0,,102.0,4.0,Neusiedl am See,7100,47.9363509,16.841463,https://www.willhaben.at/iad/immobilien/d/haus-kaufen/burgenland/neusiedl-am-see/leben-wo-andere-urlaub-machen-ihr-neues-zuhause-am-see-958776297/,willhaben.at,Weingut,"Leben, wo andere Urlaub machen - Ihr neues Zuhause am See",Parndorf Ort Bahnhof,33
"Leben, wo andere Urlaub machen - Ihr neues Zuhause am See",€ 669.000,108.0,,102.0,4.0,Parndorf,7111,47.9747695,16.840374,https://www.willhaben.at/iad/immobilien/d/haus-kaufen/burgenland/neusiedl-am-see/leben-wo-andere-urlaub-machen-ihr-neues-zuhause-am-see-1538059953/,willhaben.at,Weingut,"Leben, wo andere Urlaub machen - Ihr neues Zuhause am See",Parndorf Ort Bahnhof,33
Dein Zuhause am Wasser - Klimaaktiver Erstbezug,€ 899.000,162.0,,218.0,5.0,Parndorf,7111,47.9747695,16.840374,https://www.willhaben.at/iad/immobilien/d/haus-kaufen/burgenland/neusiedl-am-see/dein-zuhause-am-wasser-klimaaktiver-erstbezug-1299181384/,willhaben.at,Weingut,Dein Zuhause am Wasser - Klimaaktiver Erstbezug,Parndorf Ort Bahnhof,33
Dein Zuhause am Wasser - Klimaaktiver Erstbezug,€ 899.000,162.0,,218.0,5.0,Neusiedl am See,7100,47.9363509,16.841463,https://www.willhaben.at/iad/immobilien/d/haus-kaufen/burgenland/neusiedl-am-see/dein-zuhause-am-wasser-klimaaktiver-erstbezug-1010721766/,willhaben.at,Weingut,Dein Zuhause am Wasser - Klimaaktiver Erstbezug,Parndorf Ort Bahnhof,33
Ihr Haus am See mit direktem Seezugang,€ 979.000,162.0,,222.0,5.0,Parndorf,7111,47.9747695,16.840374,https://www.willhaben.at/iad/immobilien/d/haus-kaufen/burgenland/neusiedl-am-see/ihr-haus-am-see-mit-direktem-seezugang-1223476545/,willhaben.at,Weingut,Ihr Haus am See mit direktem Seezugang,Parndorf Ort Bahnhof,33
AM SEE - Ihre Wohnoase im Burgenland,ab € 399.000,,,,0.0,Parndorf,7111,47.9747695,16.840374,https://www.willhaben.at/iad/immobilien/d/neubauprojekt/burgenland/neusiedl-am-see/am-see-ihre-wohnoase-im-burgenland-1620433315/,willhaben.at,Weingut,AM SEE - Ihre Wohnoase im Burgenland,Parndorf Ort Bahnhof,33
An den Mühlen,ab € 450.000,,,,0.0,Langenzersdorf,2103,48.31644691,16.34905221,https://www.willhaben.at/iad/immobilien/d/neubauprojekt/niederoesterreich/korneuburg/an-den-muehlen-1755089598/,willhaben.at,Weingut,An den Mühlen,Langenzersdorf Bahnhof,10
"PROVISIONSFREI ""Perfekte Preis-Leistung-Willkommen in Ihrem neuen Haus""",€ 460.000,121.0,,161.0,4.0,Langenzersdorf,2103,48.313358,16.34998529,https://www.willhaben.at/iad/immobilien/d/haus-kaufen/niederoesterreich/korneuburg/provisionsfrei-perfekte-preis-leistung-willkommen-in-ihrem-neuen-haus-1025848087/,willhaben.at,Weingut,"PROVISIONSFREI ""Perfekte Preis-Leistung-Willkommen in Ihrem neuen Haus""",Langenzersdorf Bahnhof,10
Neu errichtete DH-Hälfte mit sonnigem Garten,€ 450.000,120.0,,199.0,4.0,Langenzersdorf,2103,48.31145249,16.35343984,https://www.willhaben.at/iad/immobilien/d/haus-kaufen/niederoesterreich/korneuburg/neu-errichtete-dh-haelfte-mit-sonnigem-garten-1560386563/,willhaben.at,Weingut,Neu errichtete DH-Hälfte mit sonnigem Garten,Langenzersdorf Bahnhof,10
"""Sunside Living - 5 Zimmer-Doppelhaushälfte mit sonnigem Garten",€ 450.000,121.0,,188.0,4.0,Langenzersdorf,2103,48.31511273,16.3499259,https://www.willhaben.at/iad/immobilien/d/haus-kaufen/niederoesterreich/korneuburg/-sunside-living-5-zimmer-doppelhaushaelfte-mit-sonnigem-garten-1356421405/,willhaben.at,Weingut,"""Sunside Living - 5 Zimmer-Doppelhaushälfte mit sonnigem Garten",Langenzersdorf Bahnhof,10
"PROVISIONSFREI ""Perfekte Preis-Leistung-Willkommen in Ihrem neuen Haus""",€ 460.000,121.0,,161.0,4.0,Langenzersdorf,2103,48.313358,16.34998529,https://www.willhaben.at/iad/immobilien/d/haus-kaufen/niederoesterreich/korneuburg/provisionsfrei-perfekte-preis-leistung-willkommen-in-ihrem-neuen-haus-1765759000/,willhaben.at,Weingut,"PROVISIONSFREI ""Perfekte Preis-Leistung-Willkommen in Ihrem neuen Haus""",Langenzersdorf Bahnhof,10
"Auf der sonnigen Seite Langenzersdorfs leben"" PROVISIONSFREI""",€ 473.000,122.0,,162.0,4.0,Langenzersdorf,2103,48.31446421,16.35163864,https://www.willhaben.at/iad/immobilien/d/haus-kaufen/niederoesterreich/korneuburg/auf-der-sonnigen-seite-langenzersdorfs-leben-provisionsfrei-1385928912/,willhaben.at,Weingut,"Auf der sonnigen Seite Langenzersdorfs leben"" PROVISIONSFREI""",Langenzersdorf Bahnhof,10
"Auf der sonnigen Seite Langenzersdorfs leben-""PROVISIONSFREI""",€ 473.000,121.0,,217.0,4.0,Langenzersdorf,2103,48.31446421,16.35163864,https://www.willhaben.at/iad/immobilien/d/haus-kaufen/niederoesterreich/korneuburg/auf-der-sonnigen-seite-langenzersdorfs-leben-provisionsfrei-1076798151/,willhaben.at,Weingut,"Auf der sonnigen Seite Langenzersdorfs leben-""PROVISIONSFREI""",Langenzersdorf Bahnhof,10
"""Erstbezug-Doppelhaushälfte mit Garten und Blick auf den Bisamberg""",€ 473.000,121.0,,221.0,4.0,Langenzersdorf,2103,48.31342185,16.34919309,https://www.willhaben.at/iad/immobilien/d/haus-kaufen/niederoesterreich/korneuburg/-erstbezug-doppelhaushaelfte-mit-garten-und-blick-auf-den-bisamberg-1633873128/,willhaben.at,Weingut,"""Erstbezug-Doppelhaushälfte mit Garten und Blick auf den Bisamberg""",Langenzersdorf Bahnhof,10
"""Wohnen auf der sonnigen Seite des Lebens"" PROVISIONSFREI!",€ 488.000,121.0,,147.0,4.0,Langenzersdorf,2103,48.31168915,16.35141756,https://www.willhaben.at/iad/immobilien/d/haus-kaufen/niederoesterreich/korneuburg/-wohnen-auf-der-sonnigen-seite-des-lebens-provisionsfrei-1542144409/,willhaben.at,Weingut,"""Wohnen auf der sonnigen Seite des Lebens"" PROVISIONSFREI!",Langenzersdorf Bahnhof,10
Neu errichtete DH-Hälfte mit Garten freut sich auf Sie als Bewohner: innen,€ 450.000,120.0,,199.0,4.0,Langenzersdorf,2103,48.31145249,16.35343984,https://www.willhaben.at/iad/immobilien/d/haus-kaufen/niederoesterreich/korneuburg/neu-errichtete-dh-haelfte-mit-garten-freut-sich-auf-sie-als-bewohner-innen-931886836/,willhaben.at,Weingut,Neu errichtete DH-Hälfte mit Garten freut sich auf Sie als Bewohner: innen,Langenzersdorf Bahnhof,10
"WOHNEN UND ARBEITEN UNTER EINEM DACH mit Gästehaus, Hallen und uneinsehbarem Innenhof in Obernalb!",€ 399.000,243.0,,,7.0,Obernalb,2070,48.74582617,15.93816172,https://www.willhaben.at/iad/immobilien/d/haus-kaufen/niederoesterreich/hollabrunn/wohnen-und-arbeiten-unter-einem-dach-mit-gaestehaus-hallen-und-uneinsehbarem-innenhof-in-obernalb-1239585885/,willhaben.at,Weingut,"WOHNEN UND ARBEITEN UNTER EINEM DACH mit Gästehaus, Hallen und uneinsehbarem Innenhof in Obernalb!",Retz Bahnhof,71
Ihr neues Wohlfühlparadies in Trumau: Stilvolles Einfamilienhaus mit überdachtem Pool!,€ 485.000,103.0,,,0.0,Trumau,2521,47.99088381,16.33932366,https://www.willhaben.at/iad/immobilien/d/haus-kaufen/niederoesterreich/baden/ihr-neues-wohlfuehlparadies-in-trumau-stilvolles-einfamilienhaus-mit-ueberdachtem-pool-1998757232/,willhaben.at,Weingut,Ihr neues Wohlfühlparadies in Trumau: Stilvolles Einfamilienhaus mit überdachtem Pool!,Münchendorf Bahnhof,23
Traditionelles Landhaus im Weinviertel: Viel Platz und Potenzial in Retz-Unternalb!,€ 349.900,151.0,,,5.0,Unternalb,2070,48.73453361,15.96618515,https://www.willhaben.at/iad/immobilien/d/haus-kaufen/niederoesterreich/hollabrunn/traditionelles-landhaus-im-weinviertel-viel-platz-und-potenzial-in-retz-unternalb-1494956502/,willhaben.at,Weingut,Traditionelles Landhaus im Weinviertel: Viel Platz und Potenzial in Retz-Unternalb!,Zellerndorf Bahnhof,64
Fontana Residence: Ihre exklusive Villa am Golf Club,€ 3.290.000,306.0,,10.0,6.0,Oberwaltersdorf,2522,47.97267016,16.30921659,https://www.willhaben.at/iad/immobilien/d/haus-kaufen/niederoesterreich/baden/fontana-residence-ihre-exklusive-villa-am-golf-club-1244643738/,willhaben.at,Weingut,Fontana Residence: Ihre exklusive Villa am Golf Club,Traiskirchen Aspangbahn,33
"NEU ERRICHTETE, EXKLUSIVE VILLA MIT TRAUMHAFTEN SEEBLICK IN TOPLAGE",€ 1.295.000,247.0,,43.0,7.0,Neusiedl am See,7100,47.95399333,16.86072148,https://www.willhaben.at/iad/immobilien/d/haus-kaufen/burgenland/neusiedl-am-see/neu-errichtete-exklusive-villa-mit-traumhaften-seeblick-in-toplage-994386410/,willhaben.at,Weingut,"NEU ERRICHTETE, EXKLUSIVE VILLA MIT TRAUMHAFTEN SEEBLICK IN TOPLAGE",Parndorf Ort Bahnhof,33
EINZIGARTIGES EINFAMILIENHAUS MIT GROSSEM GARTEN -NATURPOOL - LUFTWÄRME PUMPE - GRÜNBLICK,€ 990.000,178.0,,82.0,6.0,Pfaffstätten,2511,48.02188,16.23625,https://www.willhaben.at/iad/immobilien/d/haus-kaufen/niederoesterreich/baden/einzigartiges-einfamilienhaus-mit-grossem-garten-naturpool-luftwaerme-pumpe-gruenblick-2089983865/,willhaben.at,Weingut,EINZIGARTIGES EINFAMILIENHAUS MIT GROSSEM GARTEN -NATURPOOL - LUFTWÄRME PUMPE - GRÜNBLICK,Baden Bahnhof,20
Historische Altbauvilla trifft auf modernen Luxus!,€ 975.000,331.0,,484.0,9.0,Wimpassing an der Leitha,2485,47.921432,16.42738,https://www.willhaben.at/iad/immobilien/d/haus-kaufen/burgenland/eisenstadt-umgebung/historische-altbauvilla-trifft-auf-modernen-luxus-837773707/,willhaben.at,Weingut,Historische Altbauvilla trifft auf modernen Luxus!,Ebreichsdorf Bahnhof,29
Exklusive Altbauvilla in Strebersdorf - Erstbezug nach umfassender Sanierung,€ 1.690.000,170.0,,23.0,5.0,"Wien, 21. Bezirk, Floridsdorf",1210,48.29394516,16.39242216,https://www.willhaben.at/iad/immobilien/d/haus-kaufen/wien/wien-1210-floridsdorf/exklusive-altbauvilla-in-strebersdorf-erstbezug-nach-umfassender-sanierung-894029350/,willhaben.at,Weingut,Exklusive Altbauvilla in Strebersdorf - Erstbezug nach umfassender Sanierung,Langenzersdorf Bahnhof,10
Ein historisches Winzerhaus mit Seele - im Herzen von Gumpoldskirchen,€ 320.000,132.0,,,6.0,Gumpoldskirchen,2352,48.04186,16.283596,https://www.willhaben.at/iad/immobilien/d/haus-kaufen/niederoesterreich/moedling/ein-historisches-winzerhaus-mit-seele-im-herzen-von-gumpoldskirchen-1590483345/,willhaben.at,Weingut,Ein historisches Winzerhaus mit Seele - im Herzen von Gumpoldskirchen,Baden Bahnhof,20
Charmantes Einfamilienhaus im Weinviertel - Bereit zum Einziehen und Wohlfühlen,€ 195.000,134.0,,,5.0,Waidendorf,2263,48.46788,16.83777,https://www.willhaben.at/iad/immobilien/d/haus-kaufen/niederoesterreich/gaenserndorf/charmantes-einfamilienhaus-im-weinviertel-bereit-zum-einziehen-und-wohlfuehlen-1416343286/,willhaben.at,Weingut,Charmantes Einfamilienhaus im Weinviertel - Bereit zum Einziehen und Wohlfühlen,Stillfried Bahnhof,60
ERSTBEZUG! Premiumvilla mit Pool in exklusiver Lage - Panoramablick - großer Garten - bezugsfertig!,€ 1.580.000,263.0,,101.0,7.0,Gols,7122,47.897766,16.910595,https://www.willhaben.at/iad/immobilien/d/haus-kaufen/burgenland/neusiedl-am-see/erstbezug-premiumvilla-mit-pool-in-exklusiver-lage-panoramablick-grosser-garten-bezugsfertig-833350370/,willhaben.at,Weingut,ERSTBEZUG! Premiumvilla mit Pool in exklusiver Lage - Panoramablick - großer Garten - bezugsfertig!,Weiden am See Bahnhof,52
AM SEE | WOHNBAUPROJEKT PARNDORF,€ 629.000,107.0,,70.0,5.0,Parndorf,7111,47.99486497,16.87887462,https://www.willhaben.at/iad/immobilien/d/haus-kaufen/burgenland/neusiedl-am-see/am-see-wohnbauprojekt-parndorf-1388415133/,willhaben.at,Weingut,AM SEE | WOHNBAUPROJEKT PARNDORF,Parndorf Ort Bahnhof,33
NEU AM MARKT - ALTBESTAND - ABRISS - EIGENGRUND - PRIVAT - PROVISIONSFREI,€ 686.000,100.0,,630.0,5.0,"Wien, 21. Bezirk, Floridsdorf",1210,48.29836,16.38456,https://www.willhaben.at/iad/immobilien/d/haus-kaufen/wien/wien-1210-floridsdorf/neu-am-markt-altbestand-abriss-eigengrund-privat-provisionsfrei-1218622469/,willhaben.at,Weingut,NEU AM MARKT - ALTBESTAND - ABRISS - EIGENGRUND - PRIVAT - PROVISIONSFREI,Langenzersdorf Bahnhof,10
